Latitude,Longitude,FIPS,State,County,PCT_DIABETES_ADULTS13,PCT_OBESE_ADULTS13,PCT_LACCESS_POP15,PCT_LACCESS_WHITE15,PCT_LACCESS_BLACK15,PCT_LACCESS_HISP15,PCT_LACCESS_NHASIAN15,PCT_LACCESS_NHNA15,PCT_LACCESS_NHPI15,PCT_LACCESS_MULTIR15
32.5349,-86.6427,1001,AL,Autauga,13.00,34.10,32.06,23.16,7.73,0.86,0.16,0.11,0.02,0.88
30.7275,-87.7226,1003,AL,Baldwin,10.40,27.40,16.77,13.98,1.94,0.76,0.12,0.10,0.01,0.62
31.8696,-85.3932,1005,AL,Barbour,18.40,44.40,22.11,10.30,9.88,1.86,0.06,0.15,0.03,1.68
32.9986,-87.1265,1007,AL,Bibb,14.80,40.30,4.23,2.36,1.83,0.04,0.01,0.01,0.00,0.02
33.9809,-86.5674,1009,AL,Blount,14.10,34.60,6.50,5.91,0.17,0.87,0.01,0.05,0.00,0.35
32.1005,-85.7157,1011,AL,Bullock,19.6,43,37.95034236,13.39743867,24.13878216,0.220623872,0.008876198,0.070600033,0,0.334645147
31.7524,-86.6803,1013,AL,Butler,17.7,36.3,6.226804584,3.483708463,2.629976143,0.052918804,0.023657318,0.034843936,0,0.054618739
33.7714,-85.826,1015,AL,Calhoun,14.9,32.2,23.43385181,17.75997618,4.609625527,0.818821636,0.198251866,0.099767664,0.018521663,0.747708957
32.9143,-85.392,1017,AL,Chambers,16.4,39.7,20.84321414,12.51237883,7.648583993,0.370558618,0.317093104,0.060465134,0.00017858,0.304514453
34.1759,-85.6038,1019,AL,Cherokee,13.3,33.6,0.398331982,0.388205919,0.005428886,0.001342691,0,0.000835141,0,0.003862037
32.8479,-86.7188,1021,AL,Chilton,13.3,35.9,3.368006577,2.579923899,0.561393726,0.18535746,0.005604761,0.021677205,0.063490419,0.135916562
32.0198,-88.2632,1023,AL,Choctaw,18.1,40.8,19.50281549,5.367030351,14.03571633,0.081693749,0,0.03607764,0,0.063991202
31.6767,-87.8308,1025,AL,Clarke,16.3,38.2,22.11483889,8.630056986,13.14556463,0.312673747,0.053733993,0.068787011,0.003825571,0.212870697
33.269,-85.8606,1027,AL,Clay,14.6,37.3,4.613414585,4.008493619,0.463435379,0.079888998,0.006895941,0.019865981,0,0.114723649
33.6745,-85.5188,1029,AL,Cleburne,12.6,30,5.27341132,5.154791783,0.012715225,0.091298776,0.000800923,0.011218698,0,0.093884698
31.4027,-85.9882,1031,AL,Coffee,15.9,33.7,20.99400573,16.94237162,2.263935951,1.21492684,0.467612843,0.216636878,0.059878596,1.043569895
34.7005,-87.8049,1033,AL,Colbert,18.7,37.5,20.38595264,17.37282938,2.304064195,0.365804882,0.15042674,0.071140788,0.00183729,0.485654255
31.4292,-86.9937,1035,AL,Conecuh,17.4,36.4,26.90020744,19.26383622,7.133148405,0.16563231,0.030131385,0.108823115,0,0.364268321
32.9362,-86.2477,1037,AL,Coosa,17.3,39.7,24.51625213,20.0279609,4.16154734,0.247364557,0.013960188,0.028962837,0.0007004,0.283120484
31.2485,-86.4513,1039,AL,Covington,14.7,34,9.980464049,8.969370839,0.838401416,0.069080989,0.011033603,0.049577083,0,0.112081097
31.7315,-86.3135,1041,AL,Crenshaw,16.5,39.7,37.96178978,27.84056508,9.269130222,0.256597892,0.068719416,0.113491117,0,0.669883963
34.1319,-86.8676,1043,AL,Cullman,14.4,33.4,7.33809691,6.958200189,0.041748015,0.456097418,0.068790242,0.030064303,0.001624562,0.237669593
31.4318,-85.611,1045,AL,Dale,14.1,36.5,27.933713,19.97930407,5.415993447,2.422768055,0.31292738,0.216183958,0.037479035,1.97182512
32.326,-87.1065,1047,AL,Dallas,19,40.8,17.43509098,4.256388542,12.96787753,0.117462755,0.047803201,0.020018557,0.000387242,0.142615876
34.4598,-85.8041,1049,AL,DeKalb,13.4,30.4,3.768654688,2.428801512,0.16524915,1.515498543,0.02777169,0.052394405,0.021595668,1.072842272
32.5966,-86.1492,1051,AL,Elmore,13.4,35.4,18.99596054,11.91339191,6.397966946,0.531279846,0.071751416,0.074350028,0.006240389,0.5322598
31.1261,-87.1616,1053,AL,Escambia,17.8,37.7,13.2017417,7.868070176,4.672286086,0.251797417,0.009424518,0.292205459,0.001211289,0.358544183
34.0453,-86.0348,1055,AL,Etowah,16.8,35.1,22.30185466,17.98517777,3.538090434,0.495505389,0.127889207,0.058637127,0.005105474,0.586954642
33.7212,-87.7389,1057,AL,Fayette,15.1,33.7,2.362895151,1.669048053,0.647189589,0.034400745,0,0,0,0.046657518
34.4417,-87.8437,1059,AL,Franklin,13.9,33.2,11.55514048,9.69188187,0.25521681,1.883656323,0.047787657,0.131214663,0.000655596,1.428383873
31.0951,-85.8391,1061,AL,Geneva,13.9,34.1,2.259027229,2.005361545,0.202107579,0.071840744,0.00580234,0.000160344,0.001354216,0.044241228
32.8531,-87.9522,1063,AL,Greene,21,46.3,32.75833067,4.524845206,27.95727767,0.225042065,0.02131554,0.112044602,0,0.142847631
32.7627,-87.6291,1065,AL,Hale,16,40.4,11.83084613,8.002593595,3.743160527,0.078061655,0,0.006467626,0.006345178,0.072279197
31.5147,-85.2414,1067,AL,Henry,18.7,35.8,4.655371795,3.485527902,1.092552626,0.027804688,0,0.025618423,0.000679997,0.050992869
31.1532,-85.3025,1069,AL,Houston,13.7,32.8,18.06134011,13.17405142,3.942049527,0.677691878,0.290132848,0.055984752,0.0102798,0.588841754
34.7795,-85.9994,1071,AL,Jackson,14.9,32,7.926365826,6.885463369,0.453902617,0.391281766,0.040341885,0.11716139,0.006967073,0.422529485
33.5543,-86.8964,1073,AL,Jefferson,13,33.2,31.23287577,14.41318474,15.49205222,1.077910428,0.274584977,0.072432828,0.012158637,0.968462415
33.7791,-88.097,1075,AL,Lamar,14.9,33.6,1.578911098,1.511182476,0.056914687,0.006882053,0,0,0,0.010813937
34.9014,-87.654,1077,AL,Lauderdale,14.2,32.9,13.45726597,11.81871949,1.098328647,0.324871577,0.126233793,0.060413033,0.010158311,0.343412691
34.5217,-87.311,1079,AL,Lawrence,15.6,35.5,4.799919493,3.982741778,0.139378864,0.062610921,0.004372337,0.42492126,0,0.248505237
32.6011,-85.3555,1081,AL,Lee,9.5,29,26.26500879,19.05524629,5.799517749,0.68106214,0.689123165,0.081621054,0.01310725,0.626393323
34.8101,-86.9814,1083,AL,Limestone,12.6,32.9,11.28194737,8.232447867,2.426805692,0.515500953,0.03673998,0.073211778,0.002702939,0.510039106
32.1547,-86.6501,1085,AL,Lowndes,23.5,45.1,22.4786653,5.389110528,16.7985252,0.200690727,0.01813118,0.020619438,0,0.252278786
32.3859,-85.6927,1087,AL,Macon,18.4,44.7,37.52927142,2.661698233,34.15696242,0.411925816,0.205835069,0.008440872,0,0.496334954
34.7631,-86.5502,1089,AL,Madison,11.5,32.3,26.44597413,17.27521981,6.813563381,1.48908882,0.804887505,0.18255116,0.023573398,1.346178873
32.2477,-87.7895,1091,AL,Marengo,20.2,40.3,24.37345136,9.69495985,14.38574527,0.177946937,0.014899383,0.06658839,0.004442262,0.206816178
34.1366,-87.8871,1093,AL,Marion,18.7,35.5,6.269273851,6.081253567,0.038333737,0.081696948,0.000842099,0.008560712,0.022926117,0.117357621
34.367,-86.3066,1095,AL,Marshall,12.8,33.2,11.27167399,9.279866232,0.23877931,2.121867827,0.110611862,0.08534358,0.005647172,1.551425817
30.7872,-88.2058,1097,AL,Mobile,15.6,37.1,25.12606624,15.63749408,8.3213028,0.493844979,0.480092818,0.136825059,0.013694955,0.536656493
31.5709,-87.3655,1099,AL,Monroe,17.8,35.3,24.76001675,10.03965889,14.03823783,0.12516582,0.031590171,0.419231529,0,0.231298328
32.2203,-86.2076,1101,AL,Montgomery,13.5,34.8,28.85411116,8.355225907,18.89743975,1.321647773,0.311001784,0.081292304,0.02628413,1.182867294
34.4535,-86.8529,1103,AL,Morgan,12.6,31.6,12.98374724,10.59674803,1.469761969,0.77731529,0.093519246,0.096462475,0.009959172,0.717296328
32.6385,-87.2944,1105,AL,Perry,21.7,43,8.323571678,5.361738497,2.809742916,0.032961476,0.056651873,0.01764387,0,0.077794504
33.2808,-88.0888,1107,AL,Pickens,16.4,36.4,2.679725717,1.478609139,1.179410637,0.034934272,0.005064317,0.000472601,0,0.016169033
31.8027,-85.9409,1109,AL,Pike,13.5,38.4,13.78612462,8.412701284,5.026063669,0.120603401,0.080206593,0.073655661,0.003123095,0.190374297
33.2938,-85.4591,1111,AL,Randolph,14.9,30.9,14.72801232,9.622676523,4.514242396,0.576998175,0.029374869,0.05901704,0.004364335,0.498337175
32.2884,-85.1849,1113,AL,Russell,12.9,36.4,11.75865619,6.333193719,5.037420055,0.35353983,0.058908881,0.04538852,0.012193291,0.271551774
33.7157,-86.3146,1115,AL,St. Clair,12.8,33,5.457203496,4.726354393,0.528169358,0.112460143,0.048881798,0.012476575,0.00209432,0.13922701
33.2643,-86.6607,1117,AL,Shelby,8.7,30.1,24.15476247,20.90684297,1.840300662,1.247054697,0.521334548,0.065319407,0.004961339,0.81600354
32.5911,-88.1988,1119,AL,Sumter,20.1,40.3,16.74435355,3.415157118,13.27833542,0.047513884,0.014531716,0,0,0.036329289
33.3801,-86.1659,1121,AL,Talladega,15.3,39,13.41384507,9.40602262,3.554515106,0.334044273,0.114752438,0.040154393,0.00221076,0.296189763
32.8624,-85.7975,1123,AL,Tallapoosa,13.7,36.9,8.373536279,6.112914034,1.980200722,0.232941901,0.041589472,0.025461542,0.000442491,0.212928023
33.2896,-87.5251,1125,AL,Tuscaloosa,12.3,34.3,17.9082999,11.169042,6.094953725,0.441255287,0.19307602,0.061781147,0.003416494,0.386030504
33.8033,-87.2973,1127,AL,Walker,16.7,33.2,11.72531766,9.119924444,1.903847133,0.649626726,0.05861256,0.033815746,0.032580712,0.576537081
31.4076,-88.2078,1129,AL,Washington,17.8,40.2,8.411904598,6.149666534,2.086121476,0.035717459,0.012139094,0.089585269,0.005687959,0.068704255
31.9893,-87.3082,1131,AL,Wilcox,19.3,44.9,42.82029621,8.229537678,34.37088607,0.348983753,0.034275922,0.045456148,0.00856898,0.131571395
34.1492,-87.3737,1133,AL,Winston,13.2,30.2,5.959127003,5.715503401,0.013497032,0.168066458,0.008354746,0.02402236,0.002354544,0.195394905
55.3665,-161.981,2013,AK,Aleutians East,7.6,33.4,70.13690004,16.17319313,6.68576906,8.914358573,25.08755149,16.42788908,0.541228921,5.221267068
52.798,-106.606,2016,AK,Aleutians West,6.2,39.4,22.35621387,5.499198113,0.620934667,1.226591638,3.637721434,10.70780253,0.133511188,1.757045833
61.1508,-149.109,2020,AK,Anchorage,7,27,27.42720787,19.89436848,1.189853773,1.904458504,1.924391095,1.669530473,0.289217488,2.459846568
60.9132,-159.818,2050,AK,Bethel,5.8,30.3,67.62395515,4.248583076,0.162343589,0.441064549,0.169241373,60.86846305,0.034621941,2.140702061
58.7439,-156.7,2060,AK,Bristol Bay,8.5,39.7,99.99999981,48.24473447,0,2.407221662,0.802407223,33.50050178,0.300902697,17.1514542
63.6716,-150.012,2068,AK,Denali,5.8,27,100,89.64950702,0.547645125,2.300109539,1.040525737,3.559693297,0.054764511,5.147864211
59.7991,-158.235,2070,AK,Dillingham,7.2,38,50.78418952,2.919551275,0.041262636,0.515782953,0,44.08910729,0.041262636,3.693005922
64.8078,-146.565,2090,AK,Fairbanks North Star,5.5,28.1,34.44562358,26.88699659,1.540655733,2.17748562,0.845751279,2.169657869,0.14609958,2.856462493
59.1199,-135.5,2100,AK,Haines,7.9,25.5,20.68955887,17.77676394,0,0.535300754,0.160900906,1.000726625,0,1.751167352
58.2884,-135.643,2105,AK,Hoonah-Angoon,7.3,31.8,99.39092036,46.69324617,0.372093018,3.581395289,0.558139536,41.25581353,0.04651163,10.4651162
58.4546,-134.174,2110,AK,Juneau,5.9,28.6,32.17481344,22.99377328,0.251771368,1.620165244,1.591389977,3.568143981,0.151254368,3.618480485
60.2654,-151.565,2122,AK,Kenai Peninsula,7.2,28.4,19.65484668,15.90273649,0.078671937,0.501981466,0.256530987,2.178017643,0.050565006,1.188324635
55.5852,-130.929,2130,AK,Ketchikan Gateway,8.9,30.8,7.884536001,5.38745861,0.036115342,0.313275332,0.111522042,1.474515519,0.002354002,0.872570488
57.677,-153.781,2150,AK,Kodiak Island,6.6,30.2,14.33680995,9.77212751,0.162952341,0.750674724,0.234577985,3.091209493,0.04163164,1.03431088
58.6529,-156.187,2164,AK,Lake and Peninsula,7.4,31.9,99.85810052,23.17957453,0.551808716,2.636419369,0.360244482,65.05211511,0.306560382,10.40779728
62.3162,-149.571,2170,AK,Matanuska-Susitna,8.2,30.2,25.8567957,22.04514991,0.249954442,0.950875983,0.268616363,1.472438176,0.045485601,1.775151204
64.9111,-164.027,2180,AK,Nome,6,31.7,55.58372986,3.762800015,0.073746311,0.24230931,0.126422249,50.0418055,0,1.578955856
69.3122,-153.481,2185,AK,North Slope,6.5,36.5,58.55972802,26.22113672,0.56246135,1.287431504,0.811094431,28.93842938,0.096486335,1.930119713
67.053,-159.721,2188,AK,Northwest Arctic,6.5,32.4,57.45132179,4.438849512,0.106340554,0.199388541,0.026585139,50.06152185,0.013292569,2.804732124
57.1195,-132.935,2195,AK,Petersburg,7.1,30.5,4.724260753,3.902659655,0.024188708,0.227037729,0.052558074,0.266670022,0,0.478184265
55.7997,-133.019,2198,AK,Prince of Wales-Hyder,7.3,35.2,31.6386517,22.90840124,0.089944234,0.557654258,0.107933082,6.499166591,0.143910777,1.889295741
57.2401,-135.315,2220,AK,Sitka,6.7,28.7,18.37912129,12.79820401,0.065222208,0.767379275,0.519209489,2.925480764,0.089941714,1.981063202
59.563,-135.336,2230,AK,Skagway,6.4,28.1,0.309912579,0.309912579,0,0,0,0,0,0
63.8763,-143.212,2240,AK,Southeast Fairbanks,6.9,33.1,47.27677444,33.48500914,0.232972289,0.802624629,0.404026429,10.15753969,0.033584796,2.963641971
61.562,-144.469,2261,AK,Valdez-Cordova,7.4,30.4,51.99990541,38.92414575,0.25889758,1.706544241,0.769709861,8.378176466,0.288546414,3.380429248
62.1211,-163.3051,2270,AK,Wade Hampton,4.6,32.6,61.87156458,1.662421234,0.013406623,0.040219869,0.120659606,59.17683331,0,0.898243737
56.3317,-132.022,2275,AK,Wrangell,8.9,30.6,21.55442949,17.7048653,0.101192425,0.235922091,0.265412353,1.958913998,0.029490261,1.494555381
59.8889,-140.358,2282,AK,Yakutat,7.9,31.3,100,42.44713007,0.302114804,2.567975854,4.078549848,35.80060399,1.812688832,15.55891229
65.5086,-151.39,2290,AK,Yukon-Koyukuk,8.3,28.3,99.99999992,22.24409454,0.178954905,1.181102359,0.250536862,71.43879744,0.107372942,5.780243385
35.3955,-109.489,4001,AZ,Apache,14.4,35.2,70.53722718,12.02832511,0.15646342,2.779148393,0.148224549,56.42048216,0.021036372,1.762695606
31.8796,-109.751,4003,AZ,Cochise,10.3,26,42.04051833,33.68946443,2.139389776,9.515700003,1.024991647,0.451372608,0.168692505,4.566607304
35.8387,-111.771,4005,AZ,Coconino,7.6,23.2,30.82520863,14.80042112,0.188560131,2.539501576,0.239977195,14.10248481,0.033444771,1.460320605
33.7997,-110.812,4007,AZ,Gila,11.2,27.5,32.55978155,20.22055086,0.071967081,3.535152946,0.090773007,10.64285689,0.023082064,1.510551704
32.9326,-109.888,4009,AZ,Graham,10.3,32.5,37.33063613,20.46484131,0.604337957,8.595858558,0.191632093,13.26670817,0.043579058,2.759537504
33.2152,-109.24,4011,AZ,Greenlee,10.7,34.7,69.87743095,55.34497536,0.665381438,30.93350021,0.410692271,1.371656553,0.029970948,12.05475448
33.7294,-113.982,4012,AZ,La Paz,14.8,32,43.17859152,36.80438636,0.138128314,5.141317996,0.171670689,2.216899368,0.009761335,3.837745468
33.349,-112.492,4013,AZ,Maricopa,9,25.4,13.39271425,10.20053187,0.60701213,3.38118606,0.385907035,0.264048505,0.018968894,1.916245821
35.7041,-113.758,4015,AZ,Mohave,12.8,29.6,44.1297479,39.0166495,0.433141605,5.874096451,0.384294985,0.875102181,0.073564019,3.346995571
35.3997,-110.321,4017,AZ,Navajo,13.1,30.9,38.5404481,11.54324489,0.288562591,2.668634194,0.152406327,25.17358988,0.012731139,1.369913254
32.0974,-111.79,4019,AZ,Pima,8.8,24.2,22.2880727,16.71517285,0.594811914,6.526655397,0.455888592,1.471648795,0.024883388,3.025667157
32.9044,-111.345,4021,AZ,Pinal,12.3,31.6,21.49236328,16.74819356,0.584546163,5.869492759,0.176109817,0.974721932,0.014105151,2.994686666
31.5259,-110.847,4023,AZ,Santa Cruz,8,23,26.53610913,20.4363132,0.069771439,19.60239734,0.14855497,0.159853316,0.004195501,5.717420683
34.5999,-112.554,4025,AZ,Yavapai,10.5,25.3,32.50531242,29.19970893,0.203985648,4.53653707,0.240815342,0.48365106,0.028971449,2.34817997
32.7695,-113.906,4027,AZ,Yuma,12.6,30.5,20.31996108,14.85263486,0.403304054,10.34941026,0.296885503,0.242649682,0.036803586,4.487683391
34.2908,-91.3749,5001,AR,Arkansas,12.9,33.8,37.77124277,22.2666817,13.86362291,1.144771169,0.115868185,0.092360186,0,1.432709751
33.1912,-91.7685,5003,AR,Ashley,14.5,42.1,21.20491579,11.55370615,8.6501499,0.845375133,0.034605621,0.086023621,0,0.880430491
36.2872,-92.337,5005,AR,Baxter,16,32.3,11.12429912,10.76847337,0.016063821,0.197072998,0.055458159,0.057984012,0.000135209,0.226184486
36.3387,-94.2561,5007,AR,Benton,9.6,30.1,15.60801297,12.50471136,0.190322035,3.191739775,0.294522715,0.257064325,0.09408844,2.26730411
36.3086,-93.0915,5009,AR,Boone,12.4,33.9,22.79431121,21.98068941,0.028462768,0.378641456,0.089779253,0.17450859,0.006380162,0.514491057
33.4664,-92.1624,5011,AR,Bradley,13.1,39,10.7751855,7.446768227,2.495318455,0.753414449,0.053116293,0.035155582,0,0.744826971
33.558,-92.503,5013,AR,Calhoun,13.7,34.2,65.0806252,47.62933314,15.5982924,1.699548237,0.060870704,0.221379659,0,1.570749453
36.341,-93.5382,5015,AR,Carroll,13,35.8,7.080343868,6.220898549,0.031955248,1.067879482,0.068382681,0.068026528,0.02338945,0.667691388
33.2672,-91.294,5017,AR,Chicot,15.2,43.1,60.30271666,26.94299051,30.38080797,2.836043703,0.409294047,0.084745763,0.008474576,2.47640381
34.051,-93.1764,5019,AR,Clark,11.6,34.3,40.9795157,28.21852525,10.1786391,2.429386494,0.249067392,0.144865174,0.009096291,2.17932241
36.3683,-90.4175,5021,AR,Clay,11.1,33.7,10.23271954,10.0397419,0.014819507,0.102733708,0.011274499,0.014155096,0.006217746,0.146510902
35.5381,-92.0267,5023,AR,Cleburne,13.5,31.8,9.017299044,8.823324314,0.004129444,0.122847154,0.011537107,0.065529431,0,0.11277868
33.8984,-92.1852,5025,AR,Cleveland,13,35.7,21.16338872,18.37200052,2.112221067,0.546704279,0.011508804,0.161123256,0.011508804,0.495026271
33.2143,-93.2273,5027,AR,Columbia,12.9,36.4,17.25672434,11.66302182,4.958160833,0.24096184,0.270197884,0.113409164,0.014519804,0.237414719
35.2622,-92.7013,5029,AR,Conway,13.7,39.7,16.70396786,15.12847207,0.916148479,0.365721127,0.06147164,0.098692979,0,0.499182642
35.8308,-90.6328,5031,AR,Craighead,13.1,36.4,16.5436603,12.45692057,2.788957783,0.891831818,0.38400973,0.069358332,0.002949585,0.841464349
35.5885,-94.2429,5033,AR,Crawford,11.4,35.1,16.92447903,14.30997377,0.270517608,1.930434179,0.451711591,0.282060312,0.001395405,1.608820344
35.2079,-90.3089,5035,AR,Crittenden,15.8,38.8,12.72421654,7.146683724,5.155827681,0.254785524,0.130288971,0.044135228,0.00620613,0.241074762
35.2957,-90.7712,5037,AR,Cross,13.6,37.9,13.33571765,11.55523036,1.390071793,0.268874011,0.042022548,0.05296119,0.016787913,0.278643872
33.9698,-92.6544,5039,AR,Dallas,14.4,36.2,41.32398319,21.13304091,18.96109664,0.809781962,0.012321341,0.160294961,0,1.057229266
33.8333,-91.254,5041,AR,Desha,15.1,39.6,35.0513001,16.10078196,17.84832703,1.058973654,0.077778782,0.085574141,0,0.938838161
33.5895,-91.72,5043,AR,Drew,13.6,34.3,21.55413217,15.5563195,5.142922149,0.671845066,0.127053224,0.048563878,0.01202816,0.667245251
35.147,-92.332,5045,AR,Faulkner,11.2,33.2,16.69820576,13.25563598,2.364733764,0.759992494,0.288051931,0.077095104,0.00670366,0.705985276
35.5123,-93.8906,5047,AR,Franklin,13.8,37.1,6.511249607,5.901372078,0.286079482,0.112314907,0.048594735,0.115087677,0.071724136,0.088391497
36.3817,-91.8182,5049,AR,Fulton,15.6,32.9,19.13777729,18.76840902,0.068742514,0.150903614,0.00051305,0.100460786,0.000338479,0.199313449
34.5767,-93.1504,5051,AR,Garland,14.5,32.3,28.24126506,24.81797518,1.792380189,1.362636285,0.24161591,0.168080405,0.005678737,1.215534588
34.29,-92.4236,5053,AR,Grant,11.1,38.3,11.86987163,10.76030899,0.240838044,0.791150397,0.017048105,0.078065539,0.0056013,0.768009675
36.1176,-90.559,5055,AR,Greene,12.9,31.2,22.85735487,21.95346106,0.138654109,0.54630877,0.067864543,0.088488791,0.003139011,0.605747403
33.7353,-93.6685,5057,AR,Hempstead,13.5,40.3,29.10978336,17.22385321,9.15922908,2.8562805,0.122512838,0.107232884,0.009630041,2.487325329
34.3176,-92.946,5059,AR,Hot Spring,12.2,34.7,15.69095315,14.2516558,0.793280889,0.438301743,0.100187362,0.102847496,0,0.442981645
34.0888,-93.9935,5061,AR,Howard,13.4,35.7,41.16821838,32.91328483,4.688891362,3.668981138,0.326257524,0.383728033,0.009407318,2.846649274
35.7415,-91.5697,5063,AR,Independence,13.1,37.2,15.18071304,13.76064876,0.32843701,1.106912659,0.173168391,0.054417079,0.020176822,0.843864983
36.0949,-91.9134,5065,AR,Izard,15.5,33.9,1.10121971,1.04264682,0,0.012139436,0.016215482,0.02449431,0,0.017863096
35.5992,-91.2145,5067,AR,Jackson,12.9,37.2,17.26879469,11.02726628,5.726426298,0.330431034,0.048426902,0.063210621,0,0.403464552
34.2688,-91.9315,5069,AR,Jefferson,15.4,40.7,18.83047884,8.11626667,10.10363804,0.280051063,0.232780419,0.038907073,0.000706493,0.33818012
35.5701,-93.4599,5071,AR,Johnson,12.5,36.4,5.883889673,5.226319107,0.032298448,0.716634032,0.015058216,0.044800164,0.007941997,0.557471766
33.2409,-93.6071,5073,AR,Lafayette,15.3,36.3,21.13719463,12.8235913,7.825482802,0.526201774,0.220932984,0.049172048,0,0.218015519
36.0412,-91.1071,5075,AR,Lawrence,13.2,31.8,29.99027211,29.31521222,0.093102,0.33921273,0.017226529,0.157840362,0.005742176,0.401148835
34.7806,-90.7821,5077,AR,Lee,13.1,35.7,45.30245189,20.97282822,23.09203649,0.648824966,0.328810091,0.11115561,0,0.797621641
33.9575,-91.7333,5079,AR,Lincoln,12.3,37.5,33.21273075,15.43693175,16.55568631,1.28511017,0.113793597,0.050061723,0.007075138,1.049182343
33.7005,-94.2343,5081,AR,Little River,12.9,32.7,14.53866871,8.886912062,4.704944682,0.646925907,0.086025695,0.172939428,0,0.687846877
35.2153,-93.7162,5083,AR,Logan,13.8,37.5,9.26025399,8.65346233,0.035827327,0.28330135,0.167688732,0.133500061,0,0.269775544
34.7542,-91.8888,5085,AR,Lonoke,13.1,35.8,17.95963694,15.29118696,1.893185489,0.590631343,0.127181421,0.089412134,0.001885819,0.556785091
36.011,-93.7245,5087,AR,Madison,11.8,34,24.26352701,23.37766336,0.034170271,0.359057315,0.119049684,0.261528187,0.029119125,0.441996437
36.2684,-92.6842,5089,AR,Marion,12.2,31.7,13.54336579,13.08885274,0.036029543,0.367343547,0.027882473,0.084107796,0.012009848,0.294483407
33.3121,-93.8916,5091,AR,Miller,12.3,35.9,33.4289141,26.10471586,6.083727726,0.670635803,0.178101651,0.22898826,0.019574828,0.813805922
35.7638,-90.0542,5093,AR,Mississippi,15.9,39.8,12.613939,7.922482671,4.102301801,0.483142342,0.07128994,0.035705337,0.002126943,0.480032347
34.6778,-91.2039,5095,AR,Monroe,17.2,37.5,12.5199122,8.069133451,4.285659019,0.021946449,0.01655097,0.021205265,0,0.127363435
34.5388,-93.6596,5097,AR,Montgomery,14.3,33.8,22.22865979,21.42494365,0.009229876,0.393872437,0.04705782,0.169125679,0.02108148,0.557221259
33.664,-93.3072,5099,AR,Nevada,13.9,36,29.25300017,20.49394919,8.137176731,0.328887564,0.13076269,0.088285085,0,0.402826457
35.92,-93.2179,5101,AR,Newton,12.8,34.2,43.85444144,41.83959394,0.030835905,0.695111228,0.11212889,0.441857088,0,1.430025474
33.5934,-92.8819,5103,AR,Ouachita,14.8,34.8,25.86857331,13.94409457,11.00253931,0.407152438,0.048738062,0.083691133,0,0.789510227
34.9474,-92.9315,5105,AR,Perry,12.2,37.5,14.27234645,13.77214847,0.114498744,0.170220807,0.025772089,0.068559993,0.019147917,0.272219205
34.4283,-90.848,5107,AR,Phillips,16.7,45.5,50.37733644,16.51568022,32.79795864,0.685072924,0.125595684,0.099236548,0.004596222,0.834269182
34.1635,-93.6563,5109,AR,Pike,12.4,37.8,23.05731952,20.60085805,1.638106154,0.500145762,0.090902188,0.2484297,0,0.479023437
35.574,-90.663,5111,AR,Poinsett,13.8,38.4,34.02403098,29.07112417,3.827342382,1.013229824,0.055926606,0.127788635,0,0.941849109
34.4859,-94.2281,5113,AR,Polk,13.9,36.7,38.42603785,34.43043748,0.125017852,4.079860371,0.096144613,0.709061693,0,3.065376135
35.4476,-93.0342,5115,AR,Pope,11.2,32.1,13.59373527,11.53422213,0.579015032,1.508699918,0.213180191,0.057881175,0.003182609,1.206254162
34.8298,-91.5528,5117,AR,Prairie,14.3,36.3,37.02884159,33.72029395,2.613885496,0.390455118,0.034423408,0.138689374,0,0.521549419
34.77,-92.3119,5119,AR,Pulaski,12,31.7,26.60739231,13.93170577,10.79552185,1.463487852,0.381621066,0.117416586,0.019733802,1.361393206
36.3415,-91.0277,5121,AR,Randolph,12.7,35.3,32.0700913,30.69275869,0.272391897,0.65429093,0.078865846,0.215732667,0.01669542,0.79364668
35.022,-90.7478,5123,AR,St. Francis,16.4,42.5,27.10820499,8.732119324,17.26057734,1.119346432,0.142754896,0.162960465,0.008331436,0.801461345
34.6466,-92.6765,5125,AR,Saline,11.8,32.5,22.3242576,19.96022832,1.246316935,1.011444989,0.163760102,0.120608473,0.005120456,0.828223294
34.8608,-94.0633,5127,AR,Scott,11.4,32.5,17.2959815,15.76697964,0.172104229,0.462192455,0.339323545,0.459932271,0.00957716,0.548064646
35.9109,-92.6996,5129,AR,Searcy,13.4,35,33.64383829,32.1786553,0.012202563,0.408838576,0.048976356,0.518138774,0.012202563,0.873662769
35.1993,-94.2742,5131,AR,Sebastian,12.9,36.9,10.27424568,8.47515277,0.437717078,0.720352772,0.443057853,0.18356166,0.004747814,0.73000851
33.9972,-94.2412,5133,AR,Sevier,12.2,36.7,23.45916805,15.72267083,2.557803321,5.793329208,0.096067183,0.417001613,0,4.665625169
36.1612,-91.4799,5135,AR,Sharp,15.2,37.3,22.46522539,21.8284395,0.037792209,0.340380309,0.047606643,0.203484661,0.003435332,0.344467071
35.8599,-92.1567,5137,AR,Stone,12.7,32.6,25.14050045,24.33989756,0.028015725,0.401213372,0.066431459,0.246491334,0,0.45966435
33.1713,-92.5972,5139,AR,Union,13.5,39.4,26.28267126,14.58247062,10.68011134,0.944424493,0.112299003,0.085870015,0.004587794,0.81733251
35.5806,-92.5157,5141,AR,Van Buren,12.9,35.6,10.26268418,9.833304347,0.004838763,0.355001594,0.004586119,0.078888737,0,0.341066232
35.9791,-94.2156,5143,AR,Washington,9.1,30.6,14.54907232,11.43368476,0.596239406,2.343599043,0.3156713,0.149470552,0.274094931,1.779911362
35.2563,-91.7455,5145,AR,White,10.1,36.3,12.26314296,10.89542421,0.726948364,0.534685376,0.034388659,0.088376607,0.007784524,0.51022057
35.1863,-91.2431,5147,AR,Woodruff,14.7,35.8,5.258680661,4.635804549,0.480106365,0.083483482,0,0,0,0.142769749
35.0026,-93.4112,5149,AR,Yell,12.9,37.1,12.87357602,11.85549441,0.114325753,1.346297468,0.143561646,0.086039,0,0.6741552
37.6469,-121.889,6001,CA,Alameda,8.5,20,7.148677186,3.637351977,0.689806635,0.899411456,2.036359203,0.028804788,0.034402881,0.721951704
38.5972,-119.821,6003,CA,Alpine,10.3,23.4,48.95000781,44.560134,0,2.08291302,0.34042553,2.115129155,0,1.934319033
38.4464,-120.651,6005,CA,Amador,10.2,25.5,14.01342702,10.65336758,1.480472458,3.261067626,0.198541259,0.251864399,0.040754477,1.388426942
39.6669,-121.601,6007,CA,Butte,10.2,25.9,21.18106548,17.87954481,0.216810493,2.320029621,0.908126298,0.415768205,0.034309674,1.726505994
38.2046,-120.554,6009,CA,Calaveras,10,23.5,10.04489431,8.869935125,0.044190615,1.156461533,0.131612742,0.174775715,0.018481989,0.805898098
39.1775,-122.237,6011,CA,Colusa,9.6,25.4,8.268281955,6.122778611,0.17344177,2.414349938,0.083724529,0.289118067,0.023870697,1.57534827
37.9191,-121.928,6013,CA,Contra Costa,9.4,25,19.10101116,13.26110329,0.935486229,3.243113694,2.473586866,0.083306569,0.067710633,2.279817576
41.7431,-123.897,6015,CA,Del Norte,8.4,25.5,32.03823598,23.98057074,0.431216299,4.464141138,0.772753493,3.341164743,0.017370542,3.495160039
38.7787,-120.525,6017,CA,El Dorado,7.5,20.6,29.10970853,25.28599583,0.241802351,3.358392643,1.132852819,0.304589509,0.038938139,2.105529879
36.7582,-119.649,6019,CA,Fresno,9.4,26.6,9.187422735,4.906773032,0.625291166,4.148439,1.173967711,0.173165989,0.013664698,2.294560132
39.5982,-122.392,6021,CA,Glenn,8.4,26.7,9.024179136,6.691634273,0.161918928,2.164621889,0.15336656,0.658055506,0.01051411,1.348689715
40.6993,-123.876,6023,CA,Humboldt,8.8,25.5,15.67256704,13.17666141,0.124567491,1.408444886,0.265264251,0.740320641,0.020759634,1.344993582
33.0395,-115.365,6025,CA,Imperial,8.3,26.3,17.54218215,10.83437555,1.773909615,12.01067493,0.226101625,0.223865858,0.021996315,4.461933157
36.5111,-117.411,6027,CA,Inyo,9.4,23.3,41.12828133,31.28316886,0.167592054,5.95192676,0.546651942,5.314545353,0.047064952,3.769258307
35.3429,-118.73,6029,CA,Kern,9.3,30.3,14.54176899,9.639360091,0.904640682,5.553392496,0.514291954,0.189669533,0.025165955,3.268640785
36.0753,-119.816,6031,CA,Kings,7.5,26.4,19.2685065,9.953398961,2.62904623,6.91060774,0.830932423,0.199381899,0.044819564,5.610927485
39.0996,-122.753,6033,CA,Lake,10.1,26.2,18.73846535,14.48347279,0.385021105,3.528366393,0.184599044,0.889832482,0.03025089,2.765288984
40.6736,-120.594,6035,CA,Lassen,7.6,23.9,49.06722119,30.20336118,7.475632837,11.36381317,0.405544251,1.388719153,0.114256375,9.479707288
34.3207,-118.225,6037,CA,Los Angeles,9.1,21.4,6.341282048,3.787132595,0.536318302,2.214779146,0.784208638,0.040168274,0.014253913,1.179200319
37.218,-119.763,6039,CA,Madera,7.9,26.5,20.86425028,12.61313549,1.131298047,12.13716399,0.410697088,0.43575837,0.015517087,6.257844237
38.0734,-122.723,6041,CA,Marin,7.9,18.9,11.96018156,10.28322531,0.151278549,1.121121278,0.624814105,0.044734776,0.014171581,0.841957236
37.5815,-119.905,6043,CA,Mariposa,10.7,24.4,17.49940749,15.17393508,0.198388741,1.593396359,0.322856132,0.470174998,0.038354063,1.295698445
39.4402,-123.392,6045,CA,Mendocino,8.4,22.4,17.36614874,13.38942515,0.115435345,3.591934096,0.373658941,0.78636357,0.023085066,2.678180648
37.1919,-120.718,6047,CA,Merced,9.2,29.5,15.66793522,9.400116798,0.453780029,8.46284014,1.165528851,0.156811337,0.021842555,4.469855644
41.5898,-120.725,6049,CA,Modoc,10.4,23.2,26.54026206,22.31053006,0.114224878,2.893583688,0.065251568,1.492546899,0.010324179,2.547384432
37.9391,-118.887,6051,CA,Mono,7.4,22.8,49.76696249,42.76046404,0.162871034,8.017438763,0.579754141,1.777314733,0.05389013,4.432668206
36.2172,-121.239,6053,CA,Monterey,7.6,22.3,12.32315888,8.377296307,0.384106527,4.037305339,0.714387784,0.127088229,0.078385037,2.641894976
38.5065,-122.331,6055,CA,Napa,8.4,23.7,10.14021818,8.74757608,0.048136166,1.738295547,0.232521242,0.072260768,0.020922714,1.018801233
39.3014,-120.769,6057,CA,Nevada,7.7,21.1,27.03397685,24.58514772,0.101343454,2.707362503,0.331863472,0.25774164,0.021484465,1.736396083
33.703,-117.761,6059,CA,Orange,8,19.7,6.510167276,4.865297782,0.084687997,0.98687661,0.96437469,0.021374519,0.01143845,0.562993844
39.0635,-120.718,6061,CA,Placer,9,21.7,15.56076643,13.29850781,0.183846578,1.545542436,0.837041242,0.127541069,0.023892666,1.089937042
40.0046,-120.839,6063,CA,Plumas,9.8,23,8.109559564,7.023540143,0.034829016,0.971493975,0.05960503,0.156787154,0,0.83479823
33.7437,-115.994,6065,CA,Riverside,9,26,19.9963938,12.88641197,1.200552768,8.570149133,0.96437475,0.194511784,0.054059823,4.69648269
38.4493,-121.344,6067,CA,Sacramento,8.4,27.4,13.65282818,8.365580027,1.380027278,2.509694003,1.819561893,0.119032103,0.136282285,1.832344599
36.6057,-121.075,6069,CA,San Benito,7.6,23.3,17.66935038,13.23084946,0.105422513,6.281802124,0.604375566,0.169290646,0.020313849,3.539098364
34.8414,-116.178,6071,CA,San Bernardino,9.2,27.9,21.2829837,13.3835905,1.765016385,8.399829588,1.142398743,0.246663378,0.077649165,4.667665531
33.0341,-116.735,6073,CA,San Diego,7.7,19.1,13.70494308,10.23429211,0.527093081,2.415205898,1.307932971,0.098036132,0.056570477,1.48101832
37.7562,-122.443,6075,CA,San Francisco,7.9,16.1,0.555577206,0.209334689,0.140090494,0.105412865,0.100024305,0.005607352,0.008823416,0.091696948
37.9348,-121.271,6077,CA,San Joaquin,10.3,28.3,12.64942984,6.284852931,1.234046692,4.631057414,1.997982803,0.115973658,0.06859693,2.947976821
35.3871,-120.405,6079,CA,San Luis Obispo,8.5,24.5,15.67889454,13.14422437,0.369955358,2.947575955,0.405354787,0.13192863,0.023497666,1.603933724
37.4229,-122.329,6081,CA,San Mateo,8.3,21.1,9.671995349,6.844392731,0.093084506,1.040745163,1.849353625,0.028742041,0.033266214,0.823156228
34.6729,-120.017,6083,CA,Santa Barbara,7.1,18.2,13.58769679,10.36025183,0.322852387,4.380258883,0.533158816,0.153989883,0.034476461,2.18296743
37.2318,-121.695,6085,CA,Santa Clara,8.4,19.5,7.460991664,3.971602666,0.165198068,1.331940928,2.351460088,0.038646933,0.021945513,0.912138393
37.0562,-122.002,6087,CA,Santa Cruz,7,20.2,14.04882604,10.44822939,0.142304149,3.485009166,0.995783819,0.105473618,0.019549102,2.337485955
40.7637,-122.041,6089,CA,Shasta,9.4,26.5,23.28994272,20.21995697,0.183245972,1.882550584,0.590755005,0.673678477,0.031982753,1.590323513
39.5803,-120.516,6091,CA,Sierra,9.6,22.5,88.36656568,82.44832871,0.185185187,7.739896149,0.254018999,1.265131575,0.037892946,4.176008487
41.5927,-122.54,6093,CA,Siskiyou,8.6,23.2,19.7989239,16.27954841,0.173157773,2.278269505,0.230442862,1.091123746,0.030992392,1.993658729
38.27,-121.933,6095,CA,Solano,9.8,30.1,17.5008336,8.912357504,2.731024785,3.217763589,3.098162933,0.106995641,0.147627473,2.504665262
38.5283,-122.887,6097,CA,Sonoma,7.9,20.9,15.43648065,12.41780531,0.180260868,3.242521103,0.564611382,0.179983866,0.033205753,2.060613472
37.5591,-120.998,6099,CA,Stanislaus,9.7,32.6,11.74443275,7.882032796,0.310085126,4.796023765,0.62088999,0.13289218,0.054115552,2.744417091
39.0346,-121.695,6101,CA,Sutter,8.6,28.7,33.30996253,20.82516902,0.642851031,7.430312425,5.779109276,0.410633735,0.087862353,5.564337105
40.1256,-122.234,6103,CA,Tehama,11.2,27.2,20.08141231,16.59760623,0.203726798,3.652478756,0.262876513,0.487529395,0.020155406,2.509517979
40.6507,-123.113,6105,CA,Trinity,10.1,25.1,17.33823463,15.17312851,0.039383464,0.971792384,0.105093462,0.768062779,0.026530516,1.226035929
36.2201,-118.801,6107,CA,Tulare,8,32.6,13.49685752,7.765332496,0.188955103,8.67521416,0.415680225,0.225183664,0.021033261,4.880672783
38.0276,-119.955,6109,CA,Tuolumne,10.1,20.2,29.09442738,26.18348453,0.172199456,2.889633288,0.259201973,0.549718811,0.032991048,1.896831554
34.4565,-119.084,6111,CA,Ventura,7.6,20.3,15.88902749,12.04392586,0.251888315,4.42743582,1.0882098,0.124403909,0.02437351,2.356226093
38.6866,-121.902,6113,CA,Yolo,6.9,22.7,6.162067794,4.369888841,0.114253951,2.024730099,0.286330498,0.090031304,0.017108451,1.284454768
39.269,-121.351,6115,CA,Yuba,7.6,24.8,20.78084472,13.15949878,0.619923188,7.150772097,1.134171656,0.61312136,0.085483983,5.168645705
39.8736,-104.338,8001,CO,Adams,7.2,26.3,15.14838311,11.13608444,0.561235162,5.7215531,0.458200394,0.179924254,0.022383505,2.790555381
37.5729,-105.788,8003,CO,Alamosa,6.7,23,5.925453148,4.951227293,0.033353376,1.777890471,0.038615376,0.125781153,0,0.776475947
39.6498,-104.339,8005,CO,Arapahoe,6.3,21.4,12.14708199,9.430069944,0.981981578,1.470033961,0.703347824,0.075777717,0.018945334,0.936959605
37.1935,-107.048,8007,CO,Archuleta,5.9,16.5,29.79892049,24.33584151,0.135495059,7.456774273,0.177157415,0.74720092,0.036405525,4.366819968
37.3192,-102.56,8009,CO,Baca,7.6,19.4,25.21711998,23.41765349,0.079197469,1.774855441,0.052798309,0.412859841,0,1.254610886
37.9551,-103.072,8011,CO,Bent,7,26.5,25.86261095,20.27444504,2.274246994,6.84754719,0.283385225,0.533722536,0.06154793,2.435263072
40.0925,-105.358,8013,CO,Boulder,4.1,13.4,14.64769627,12.88545101,0.119151772,2.118365729,0.456693468,0.104659674,0.003316529,1.078423812
39.9541,-105.053,8014,CO,Broomfield,5.5,17.6,29.78500272,25.56384775,0.303907737,3.479709549,1.854039275,0.180724956,0.019688201,1.862794746
38.747,-106.194,8015,CO,Chaffee,6.4,20.5,10.01079285,9.599146746,0.026406664,0.439739806,0.047669122,0.052177781,0.005900451,0.279492022
38.828,-102.604,8017,CO,Cheyenne,6.5,23.7,33.85905532,30.34552776,0.381263614,4.447392084,0.155460109,0.272331157,0.054466228,2.650006479
39.6891,-105.644,8019,CO,Clear Creek,7.9,18.1,13.8931379,13.03781654,0.156835713,1.000570441,0.082131431,0.208550473,0,0.407803668
37.2007,-106.192,8021,CO,Conejos,6,24.5,5.617444267,4.52143365,0.024025049,2.19522938,0,0.054951803,0,1.017033791
37.2781,-105.428,8023,CO,Costilla,8.3,21.9,99.94345096,67.97035872,0.681044254,66.02568087,0.964812707,2.951191819,0.2553916,27.12065186
38.3266,-103.785,8025,CO,Crowley,6,21.6,7.890863162,7.302869469,0.017173278,0.947868357,0.034346556,0.120212949,0,0.416260942
38.1087,-105.368,8027,CO,Custer,6.8,20.5,25.88572118,24.81021071,0.069397867,0.938769561,0.045410072,0.17986152,0,0.7808411
38.8614,-107.863,8029,CO,Delta,7.6,20.4,8.440082654,7.303585203,0.016654779,1.932368187,0.041316868,0.057079216,0.003702696,1.017743905
39.7621,-104.876,8031,CO,Denver,6,16.4,9.210319708,4.372871521,2.300913972,4.114671613,0.304586771,0.130311237,0.01294555,2.088690666
37.7517,-108.517,8033,CO,Dolores,7.5,19.8,99.99999977,93.0232556,0.19379845,3.972868184,0.096899221,2.906976731,0.096899225,3.68217052
39.3297,-104.93,8035,CO,Douglas,5.3,17,19.15518586,17.52502816,0.204916116,1.370824555,0.55329915,0.074059658,0.013571645,0.784311108
39.6278,-106.695,8037,CO,Eagle,3.3,11.8,15.43756575,12.84812959,0.107322578,5.119793334,0.154767087,0.075678314,0.00084531,2.250822919
39.2866,-104.136,8039,CO,Elbert,5.2,19.6,25.92968029,24.63897698,0.141384975,1.274205954,0.10202056,0.177864083,0.019133608,0.850299954
38.8321,-104.526,8041,CO,El Paso,7,22.3,27.05826755,21.57471026,1.781804553,4.006090786,0.709490824,0.24528084,0.104319843,2.642661251
38.473,-105.44,8043,CO,Fremont,8.1,22.8,34.52896106,31.64766973,0.91222902,3.995653958,0.140685896,0.50496048,0.020432947,1.302982914
39.5993,-107.904,8045,CO,Garfield,4.7,20,15.31016101,11.97228898,0.081562237,5.038148494,0.130261857,0.298263493,0.019565063,2.808219365
39.8575,-105.523,8047,CO,Gilpin,6.3,19.7,0,0,0,0,0,0,0,0
40.1026,-106.118,8049,CO,Grand,5.6,17.4,2.842612592,2.733571485,0,0.127653212,0.005751654,0,0,0.10328946
38.6668,-107.032,8051,CO,Gunnison,4.6,14.8,12.00007854,11.52997037,0.003922524,0.55065157,0.047748613,0.088376522,0,0.330060449
37.8213,-107.3,8053,CO,Hinsdale,6.6,20.5,11.775975,11.01000227,0,0.560922417,0.04321329,0.355871872,0,0.366887791
37.6847,-104.961,8055,CO,Huerfano,7.6,20.1,36.65351702,33.06590671,0.121169472,5.833619305,0.116447233,0.44849586,0.089405457,2.812092378
40.6664,-106.343,8057,CO,Jackson,6.6,21.4,27.42001912,25.685848,0,1.966553768,0,0.19803346,0,1.536137685
39.5864,-105.251,8059,CO,Jefferson,5.4,18.3,22.75838034,20.67623517,0.186083435,2.398016243,0.573125942,0.152066671,0.018712002,1.152157121
38.4327,-102.74,8061,CO,Kiowa,7.7,19.5,100,96.28040065,0.28612303,5.579399183,0,0.500715308,0,2.932761122
39.3055,-102.603,8063,CO,Kit Carson,7.3,27.6,11.13720021,10.46345806,0.012091898,1.063009615,0.048367593,0.012091899,0.012091898,0.589098852
39.2025,-106.345,8065,CO,Lake,5.4,17.5,19.9152718,14.8825718,0.054065222,11.06890465,0.056681948,0.136327434,0,4.785625468
37.2866,-107.843,8067,CO,La Plata,4.8,16.3,14.31257785,13.12833119,0.055428781,1.06197141,0.108027409,0.299128579,0.010173189,0.711488744
40.6664,-105.461,8069,CO,Larimer,5.2,18.7,18.899331,17.35634648,0.10316252,1.916668406,0.281450915,0.137475563,0.014395535,1.006500006
37.3158,-104.039,8071,CO,Las Animas,7.7,21,39.8644298,33.21641522,0.871552078,15.17660517,0.292535272,1.132232951,0.020033807,4.331660426
38.9881,-103.514,8073,CO,Lincoln,7.6,23.8,22.80138438,21.20109756,0.128040978,1.518200106,0.100278728,0.018291568,0.018291567,1.33538402
40.7247,-103.11,8075,CO,Logan,7,25.4,19.54169453,18.48380821,0.092841787,1.78573354,0.050671814,0.088818105,0.006559031,0.818995578
39.0183,-108.466,8077,CO,Mesa,7.2,23.5,31.4567894,28.23605527,0.19856852,4.152941025,0.219371922,0.339099782,0.023544472,2.44014943
37.6689,-106.924,8079,CO,Mineral,6.8,18.1,12.79665824,12.46969244,0,0.399589402,0,0,0,0.326965849
40.6184,-108.207,8081,CO,Moffat,6.3,25.8,23.41601437,21.40343772,0.100876237,3.520017363,0.156067628,0.267197296,0,1.488435451
37.3386,-108.597,8083,CO,Montezuma,6.5,21.7,16.43290688,9.220285388,0.027698412,1.643011299,0.093739216,6.321289592,0,0.769894289
38.4022,-108.269,8085,CO,Montrose,8.1,19.7,20.51166797,16.37701473,0.058184229,6.201177806,0.148444818,0.266181809,0.009258016,3.652584293
40.2626,-103.81,8087,CO,Morgan,7.4,26.9,11.98231255,8.665355754,0.929711728,4.742281875,0.009495403,0.054092254,0.011643677,2.312013734
37.9026,-103.717,8089,CO,Otero,6.8,26.9,29.62060156,22.68940257,0.246926787,14.42211525,0.345744577,0.548751447,0.014729216,5.775047041
38.1555,-107.769,8091,CO,Ouray,6.7,18.6,6.164991947,6.005246199,0,0.151870314,0.011017558,0.061849334,0,0.08687892
39.1193,-105.717,8093,CO,Park,6.7,20.5,53.86319785,51.10387498,0.193482215,2.686600996,0.335005733,0.594628136,0.008933188,1.627273529
40.594,-102.358,8095,CO,Phillips,7.8,22.8,4.713433348,4.619756583,0,0.387243691,0.015522835,0.022518727,0,0.055635203
39.2171,-106.917,8097,CO,Pitkin,5.1,14.9,9.146741607,8.58542618,0.111834914,0.659696934,0.127133427,0.049065591,0.000222827,0.273058612
37.9552,-102.393,8099,CO,Prowers,8.4,26.1,23.8819325,19.18409199,0.19326448,8.681187073,0.098237143,0.239503215,0.00689944,4.159936188
38.1735,-104.513,8101,CO,Pueblo,9.1,25.9,36.87579372,29.55234818,0.674339895,14.69523784,0.264366824,0.622344124,0.026524817,5.735869923
39.9798,-108.217,8103,CO,Rio Blanco,6,22.6,8.584267208,8.169677142,0.030003,0.60511572,0.010906248,0.104975803,0,0.268705008
37.5825,-106.383,8105,CO,Rio Grande,6.9,23.2,12.18745358,11.19175399,0.087355742,1.784598426,0.077351478,0.181750109,0.008872938,0.640369272
40.4851,-106.991,8107,CO,Routt,4.1,14.3,22.34942416,21.08966555,0.136902455,1.587227271,0.187640923,0.076645877,0.019462418,0.839107084
38.0805,-106.282,8109,CO,Saguache,7,19.7,20.22692749,18.69141943,0.016134833,2.373297155,0.052592195,0.266871506,0,1.199909523
37.764,-107.676,8111,CO,San Juan,6.7,19.3,99.24281023,91.83929207,0,11.98148682,1.144492148,0.28612303,0,5.972902836
38.0038,-108.406,8113,CO,San Miguel,5,16.7,9.766182884,9.491257864,0,0.369116883,0.020758793,0.030739564,0,0.223426661
40.8759,-102.352,8115,CO,Sedgwick,8,22.1,18.56662012,17.05791163,0.084068938,2.202859436,0.163605465,0.042034468,0,1.218999599
39.6342,-106.116,8117,CO,Summit,4.1,13.1,18.48540752,16.27822286,0.125634084,3.078169705,0.161864391,0.102059893,0.007269318,1.810356999
38.8822,-105.162,8119,CO,Teller,6.9,20.3,12.86382228,12.21877154,0.046130037,0.71031687,0.090752673,0.07454646,0.00482954,0.428792079
39.971,-103.201,8121,CO,Washington,6.5,23.2,51.62086852,48.78025567,0.103863732,4.313498549,0.124122306,0.04154549,0.041545492,2.529535774
40.5548,-104.393,8123,CO,Weld,6.4,26,14.67368473,12.19603632,0.100217543,4.344841492,0.109757635,0.155283034,0.008437052,2.103953137
40.0029,-102.424,8125,CO,Yuma,6.1,24.8,22.9069798,21.29986494,0.02279889,2.85117357,0.038356614,0.143253436,0.029871553,1.372834348
41.2708,-73.3894,9001,CT,Fairfield,7.6,21.4,29.31496253,26.22944064,1.106589493,1.794519839,1.012664203,0.037354314,0.007098606,0.921815281
41.8064,-72.7329,9003,CT,Hartford,9.6,26.8,28.9916047,24.61852696,2.089996142,1.639968549,1.121685685,0.043000988,0.006429172,1.111965769
41.7925,-73.2453,9005,CT,Litchfield,6.7,23.9,18.24762343,17.09845206,0.260162073,0.767038348,0.384018804,0.039634548,0.002795507,0.462560452
41.4632,-72.5351,9007,CT,Middlesex,8.4,24.1,31.4603373,28.40154263,1.240987882,1.321587418,0.777059366,0.039705032,0.012138744,0.988903649
41.4105,-72.9321,9009,CT,New Haven,9,26.5,28.74941769,25.16274607,1.443118374,2.134646344,0.921183036,0.046985063,0.006578262,1.168806867
41.4866,-72.1015,9011,CT,New London,9.2,27.6,36.13418052,29.89195028,2.07555771,2.671160322,1.554105279,0.273150017,0.018956606,2.320460656
41.855,-72.3365,9013,CT,Tolland,7.2,24.8,34.93115186,31.09841198,1.319530462,1.702145583,1.177181511,0.058724063,0.009478912,1.267824902
41.83,-71.9874,9015,CT,Windham,10.1,29.6,15.88173585,14.27856586,0.407164502,1.219205632,0.223282579,0.085174785,0.011116457,0.876431663
39.0862,-75.5684,10001,DE,Kent,12.8,32.8,15.75591975,11.17708869,3.268408877,0.869272019,0.357260397,0.098559396,0.00712932,0.847473041
39.5768,-75.6527,10003,DE,New Castle,9,27.7,22.68680661,15.54689538,4.566347257,1.572886001,1.327416988,0.0590741,0.00640275,1.180670151
38.6606,-75.39,10005,DE,Sussex,13.2,31,14.02476794,11.23287475,1.692575359,1.063485133,0.132255754,0.118300474,0.01758918,0.83117243
38.9047,-77.0163,11001,DC,District of Columbia,8.1,22.4,2.108657988,0.770029809,1.222008063,0.084273961,0.034897108,0.007039068,0.000754401,0.073929536
29.6747,-82.3577,12001,FL,Alachua,8.3,25.6,15.2279375,10.20854153,3.502909115,1.343723076,0.752378055,0.0444374,0.011946811,0.707724604
30.3311,-82.2846,12003,FL,Baker,13,35.8,33.12709885,26.83708023,5.338059423,0.633683849,0.190798743,0.080391917,0.003634982,0.677133391
30.2652,-85.6203,12005,FL,Bay,11.2,29.9,33.34783129,28.44323265,2.502719982,1.561196104,0.699716954,0.226992541,0.044568264,1.430600905
29.9499,-82.1688,12007,FL,Bradford,14.4,35.9,5.538860164,3.937778175,1.449936562,0.184965842,0.023383969,0.015188135,0.000175862,0.112397458
28.2937,-80.7323,12009,FL,Brevard,11.7,25.6,40.24870643,33.79044678,3.825644833,3.185825036,0.77653462,0.164049494,0.035860093,1.656170578
26.1523,-80.4871,12011,FL,Broward,9.5,24.4,9.066690835,6.473852882,1.723115503,2.667803824,0.324109125,0.021164505,0.003242767,0.521206052
30.406,-85.1972,12013,FL,Calhoun,15.5,39.4,18.02309166,14.92367947,2.191856908,1.108514472,0.046006565,0.190357866,0.015769443,0.65542145
26.9055,-81.9123,12015,FL,Charlotte,14.1,25.7,41.81416901,37.67486405,2.452367963,2.240417336,0.471999745,0.091097056,0.015924485,1.107915691
28.8489,-82.4794,12017,FL,Citrus,14.6,26.3,31.07298495,29.18678726,0.676289464,1.380264738,0.396673756,0.092878305,0.008752823,0.711603336
29.9831,-81.8579,12019,FL,Clay,12,29.7,24.35037297,20.68263363,1.931238246,1.586305995,0.531459176,0.106183274,0.03129416,1.067564438
26.1107,-81.3476,12021,FL,Collier,8.6,19.5,28.17763944,24.05541031,1.693785104,5.848453618,0.287742309,0.116911003,0.008387705,2.015403019
30.2242,-82.6215,12023,FL,Columbia,12.7,36.3,16.4038991,12.93588867,2.612566125,0.912029654,0.133213019,0.11663785,0.016393401,0.589200031
27.1864,-81.8095,12027,FL,DeSoto,13.7,36,9.909859565,6.667378602,1.21791113,3.088370957,0.019812004,0.053539181,0.002868453,1.94835018
29.6082,-83.1588,12029,FL,Dixie,14,30.6,9.038399958,8.949483319,0.01871674,0.146922879,0.024140952,0.017973302,0,0.028085638
30.3316,-81.6708,12031,FL,Duval,11.2,30.6,24.71866203,15.19791147,7.046025726,1.831844664,1.119092266,0.097957034,0.021490561,1.236184983
30.6689,-87.3628,12033,FL,Escambia,12.4,28.9,36.49704036,25.81992305,7.482496936,1.903336718,1.162737687,0.286122817,0.062105491,1.68365434
29.4614,-81.3136,12035,FL,Flagler,12.4,24.2,34.52730048,27.83298599,4.205390929,3.406878075,0.887875596,0.106379962,0.021598504,1.473069475
29.8765,-84.814,12037,FL,Franklin,11,32.2,2.488829933,2.304413237,0.082086413,0.108833149,0.000153171,0.001838817,0,0.10033829
30.5795,-84.6136,12039,FL,Gadsden,17.1,36.5,8.560033479,1.678818221,5.91356535,1.214418296,0.021341656,0.014443754,0.007917663,0.923946837
29.7258,-82.8004,12041,FL,Gilchrist,8.4,31.5,0.443006613,0.438734842,0,0.022377539,0,0,0,0.004271767
26.9564,-81.1891,12043,FL,Glades,13.8,33.1,56.90396861,36.84298662,11.77383975,9.058892799,0.229456514,4.22385778,0.007761565,3.826066255
29.9555,-85.2266,12045,FL,Gulf,11.1,30.9,18.73744314,17.24604575,1.0375983,0.622320459,0.066703866,0.07504688,0.001739445,0.31030896
30.4964,-82.9479,12047,FL,Hamilton,13,33.2,22.07153521,16.10551062,5.077999172,1.112304529,0.145907275,0.08283636,0,0.659281767
27.4927,-81.81,12049,FL,Hardee,12.6,33.9,35.29567425,24.10765269,4.664323084,16.18652048,0.332759713,0.1253229,0.020906107,6.044709881
26.5535,-81.1659,12051,FL,Hendry,13.7,35.2,24.63174741,10.2995924,8.526294653,8.744862432,0.04587358,1.149707561,0.015810898,4.594468417
28.5536,-82.425,12053,FL,Hernando,13.4,32.1,36.0515991,32.32508986,1.819355008,3.632544145,0.364091524,0.107960799,0.0179267,1.417175207
27.3433,-81.341,12055,FL,Highlands,14.2,31,33.15960245,27.15547816,2.607742569,6.040533344,0.699512339,0.175615551,0.022467551,2.498786307
27.9291,-82.3092,12057,FL,Hillsborough,10.4,28.3,24.43172113,18.6050038,2.902679104,5.069540947,0.941186675,0.090553645,0.020049741,1.872248178
30.8679,-85.814,12059,FL,Holmes,14.2,31.6,15.72389873,14.94730436,0.143937113,0.348038342,0.038840372,0.098327944,0.005018317,0.490470609
27.6943,-80.6062,12061,FL,Indian River,11.4,24.5,37.17288574,30.86452939,4.428615139,2.765474672,0.424007905,0.079424962,0.008557518,1.36775084
30.7954,-85.2155,12063,FL,Jackson,12.4,34.7,5.478568352,4.335844119,0.930268596,0.158823967,0.062107628,0.043825125,0.002330613,0.104192266
30.4375,-83.8953,12065,FL,Jefferson,11.7,32.2,16.25782084,9.58347046,6.26406517,0.402479376,0.046102014,0.030172872,0.006774609,0.327235701
29.9855,-83.1811,12067,FL,Lafayette,13.2,35.3,6.359608953,6.215165208,0.011273957,0.149130824,0,0.010215118,0,0.122954685
28.7615,-81.7113,12069,FL,Lake,14.7,29.3,27.5003404,22.60571195,3.07249402,2.660645464,0.379817018,0.106705865,0.019219183,1.316392395
26.5778,-81.8337,12071,FL,Lee,9.9,24.6,25.68755092,20.91038274,2.669814991,4.620817015,0.333670941,0.080338784,0.01435477,1.678988686
30.458,-84.2779,12073,FL,Leon,8.3,26.4,28.97913396,20.21497105,6.865563036,1.542500917,0.884943811,0.08084739,0.012411835,0.920396876
29.3184,-82.7436,12075,FL,Levy,14.1,32.2,7.98576947,7.35899164,0.180785945,0.754776278,0.033639462,0.051178475,0,0.361173962
30.2414,-84.8829,12077,FL,Liberty,13.4,39.6,25.85979696,23.81009029,1.108273698,1.079465766,0.054163624,0.152870564,0,0.73439881
30.4441,-83.4701,12079,FL,Madison,15.6,34.1,21.08245762,13.44770903,7.03290869,0.657826122,0.039382577,0.074559587,0,0.487897668
27.4719,-82.3153,12081,FL,Manatee,10.6,25.3,21.74650531,18.95989451,1.269453058,2.287477534,0.328506127,0.06628077,0.009750996,1.112619824
29.2102,-82.0567,12083,FL,Marion,12.6,29.2,27.29383513,22.18366693,3.406294079,2.635508487,0.374415007,0.09568553,0.011291801,1.22248177
27.0775,-80.4315,12085,FL,Martin,11.3,21.3,30.33266806,27.81135651,1.259605776,2.129843394,0.282045921,0.055966225,0.014800764,0.908892886
25.615,-80.5623,12086,FL,Miami-Dade,7.9,21,5.334857094,4.154037474,0.83830007,3.054329128,0.089368167,0.007485881,0.001929048,0.243736453
25.3156,-81.1106,12087,FL,Monroe,8.6,22,27.98934751,26.11547156,0.740027441,4.597062372,0.253467372,0.102812493,0.019291104,0.75827752
30.6106,-81.8016,12089,FL,Nassau,10.8,28.6,24.22885392,21.44801723,1.820560401,0.811900645,0.211034642,0.109016534,0.029817981,0.610407148
30.6913,-86.5917,12091,FL,Okaloosa,9.7,26.4,34.71518274,28.33563043,2.918605753,2.286500644,1.049423874,0.173037948,0.08462514,2.153859551
27.3864,-80.8886,12093,FL,Okeechobee,11.6,31,47.83019433,35.59984555,4.297635527,13.58839146,0.31717297,0.393832567,0.033781819,7.187925917
28.5144,-81.3235,12095,FL,Orange,8.8,24.9,18.63833165,12.64243592,3.259882366,4.659475811,0.945705888,0.07227129,0.020453783,1.697582436
28.0627,-81.1495,12097,FL,Osceola,12,29.1,21.41985606,15.23878703,2.38306128,10.59400579,0.461637892,0.11648658,0.0308442,3.189039081
26.6476,-80.4655,12099,FL,Palm Beach,10.5,21.5,17.17255862,13.55068777,2.429445368,2.444245659,0.410785293,0.034223566,0.005666877,0.741749748
28.3091,-82.3932,12101,FL,Pasco,12.2,31.1,23.62443324,21.3092098,0.800845991,2.260452472,0.456283757,0.080751813,0.016082925,0.961258947
27.9196,-82.7256,12103,FL,Pinellas,10.8,25.5,14.32289166,11.78600913,1.594190964,0.968138168,0.397902534,0.038020631,0.011606237,0.495162139
27.9489,-81.6976,12105,FL,Polk,14.3,32.3,32.8693027,26.30995163,3.539507404,5.265066266,0.483910394,0.136939105,0.018688813,2.380305362
29.6087,-81.7443,12107,FL,Putnam,12.2,36.1,24.06270286,17.0507904,5.648356588,1.991902701,0.141009003,0.071717712,0.021792406,1.129036751
29.9016,-81.4407,12109,FL,St. Johns,9,21.9,25.38910909,22.59231492,1.816750437,1.180608355,0.342462948,0.076230784,0.019085424,0.542264563
27.3773,-80.472,12111,FL,St. Lucie,11.5,27.9,36.86657124,27.77903908,6.265116184,5.394534939,0.560944111,0.122421293,0.023138094,2.115912457
30.7004,-87.022,12113,FL,Santa Rosa,9,26.1,41.0221818,36.30221684,1.77894837,1.889744158,0.835403848,0.328170307,0.057375093,1.720067328
27.1845,-82.3315,12115,FL,Sarasota,11.1,20.6,26.56712513,24.7610215,0.801771348,1.370517738,0.302500692,0.055950964,0.010246565,0.63563407
28.717,-81.2363,12117,FL,Seminole,10,24.6,27.44180081,21.64021668,3.105039735,3.973345676,1.112531718,0.068554976,0.016524008,1.498933692
28.7048,-82.081,12119,FL,Sumter,14.9,26.9,12.54735766,11.5770372,0.637314708,0.373209631,0.085563406,0.038610275,0.003763162,0.205068929
30.1956,-82.9915,12121,FL,Suwannee,13.5,33.3,17.02313784,13.5874421,2.314282766,1.849024388,0.066481099,0.039124375,0.00738873,1.008418765
30.047,-83.6035,12123,FL,Taylor,15.4,38.9,28.86027821,25.25592441,2.739537079,0.432883009,0.108501845,0.207699952,0.00479784,0.543817074
30.0439,-82.3714,12125,FL,Union,12.5,37.1,23.16919951,15.75873184,7.030409653,1.285792617,0.036141627,0.033506406,0.003873723,0.306536426
29.0584,-81.1819,12127,FL,Volusia,12.4,26,34.58419036,29.44192423,2.687380935,3.955500872,0.468160104,0.125781712,0.012075153,1.848868239
30.1673,-84.4007,12129,FL,Wakulla,11.7,36.4,1.259731886,1.225601711,0.004815529,0.007681165,0.000563977,0.018438839,0,0.010311833
30.6436,-86.1697,12131,FL,Walton,11.6,27.5,12.68503037,11.33487566,0.496226778,0.480510676,0.118443252,0.210281362,0.00159704,0.523606269
30.6106,-85.6653,12133,FL,Washington,12.9,38.5,41.33119451,31.52627049,7.7100337,1.536906824,0.205962704,0.564808989,0.012155528,1.311963174
31.7492,-82.2889,13001,GA,Appling,12.9,34.8,20.13204572,16.82166117,1.869959062,1.636883656,0.24920599,0.03888817,0.065803907,1.086527413
31.2971,-82.8801,13003,GA,Atkinson,11.5,35.3,22.92058526,12.73440962,6.348366317,4.487700396,0.047761194,0.194662051,0.035820895,3.559565123
31.5537,-82.4527,13005,GA,Bacon,10.4,32.7,12.34435261,8.432687532,2.847353522,1.040775538,0.050489425,0.015353343,0,0.998468826
31.3262,-84.4447,13007,GA,Baker,14.8,30,75.83069011,38.26808291,34.25254767,2.631842838,0.547407274,0.202839759,0.057954217,2.501858248
33.0692,-83.2496,13009,GA,Baldwin,14,36.8,16.59503664,7.604043701,8.358715826,0.225290136,0.252757865,0.038382795,0.002079293,0.339057158
34.3541,-83.4974,13011,GA,Banks,11.1,27,3.665769136,2.638285854,0.080041986,1.338281614,0.02018792,0,0,0.927253391
33.9932,-83.7127,13013,GA,Barrow,11.3,34.6,12.96766033,10.64893255,1.036555234,1.028549698,0.472477398,0.048453034,0.004031268,0.757210762
34.2377,-84.8403,13015,GA,Bartow,12.1,35.2,32.47930871,26.04609653,3.846252407,2.899776196,0.199889637,0.120606026,0.013795394,2.252668741
31.7598,-83.2205,13017,GA,Ben Hill,12.4,35.3,22.96905545,14.87455668,6.019937511,2.199251763,0.180630323,0.027222241,0.011341726,1.85536701
31.276,-83.2296,13019,GA,Berrien,14.2,34.7,19.30431185,15.78411193,2.747495634,0.875612568,0.026576068,0.035827718,0,0.71030049
32.8065,-83.6974,13021,GA,Bibb,12.7,31.3,24.70198509,11.7109027,11.88238936,0.793495808,0.327685735,0.058926339,0.01766202,0.704418958
32.4344,-83.3279,13023,GA,Bleckley,13.6,30.4,6.947878264,5.54576208,1.208145659,0.193744413,0.031102831,0.008117754,0,0.154749945
31.1969,-81.9819,13025,GA,Brantley,10.9,33.1,4.339335089,4.043659746,0.180564228,0.099272289,0,1.31E-05,0,0.115098074
30.842,-83.5802,13027,GA,Brooks,14.5,33.5,8.342279466,5.311599335,2.495981652,0.543227315,0.011848022,0.025571665,2.07E-05,0.497258084
32.0145,-81.4436,13029,GA,Bryan,12.3,29.3,25.76938561,20.21764423,3.974730366,1.578072861,0.37589908,0.099858603,0.019119268,1.082134159
32.3968,-81.7432,13031,GA,Bulloch,12,33.5,6.371609971,4.373251289,1.658837506,0.244191442,0.106046578,0.010709553,0.002568844,0.220196199
33.0611,-82.0009,13033,GA,Burke,14.7,32,7.545571147,3.484747202,3.827647095,0.192387803,0.015665162,0.035668418,0.000419749,0.181423557
33.2879,-83.9572,13035,GA,Butts,11.7,28.7,4.736413192,2.006902844,2.594957396,0.095799957,0.009427156,0.007948538,0,0.117177229
31.5292,-84.6245,13037,GA,Calhoun,14.4,34.4,13.75553386,5.11462969,8.293579669,0.225466471,0.10477824,0.029877504,0,0.212668776
30.9306,-81.67,13039,GA,Camden,10.9,31.5,43.80764443,31.76869589,8.918829412,2.737096804,0.659787753,0.233937982,0.054355771,2.172037561
32.4034,-82.0737,13043,GA,Candler,13.7,30.3,3.52595857,1.601299489,1.758674148,0.290431971,0.002352404,0.002759777,0,0.160872739
33.5828,-85.0798,13045,GA,Carroll,11.3,31.7,21.90328522,14.59230156,5.459034012,2.185838724,0.188902052,0.092207591,0.004516812,1.566323201
34.9036,-85.1382,13047,GA,Catoosa,12.2,27.8,34.86528093,32.70798262,0.673199092,0.771342554,0.44223516,0.134714921,0.025374387,0.881774721
30.7817,-82.1379,13049,GA,Charlton,11.6,32,18.13230619,13.2642519,4.463066484,0.25195455,0.072900315,0.075611712,0,0.256475742
32.0042,-81.1328,13051,GA,Chatham,11,31.3,22.10819375,13.76714234,6.892924252,1.157575553,0.433205969,0.054492707,0.015901378,0.944527092
32.347,-84.787,13053,GA,Chattahoochee,6.4,27.3,96.77834038,66.54084623,18.23644497,12.11724061,2.124554509,0.674977148,0.632172852,8.569344984
34.475,-85.3453,13055,GA,Chattooga,11,34,5.073589452,4.158402625,0.516817725,0.323057034,0.023211538,0.00037867,0.004404837,0.370374074
34.2439,-84.4762,13057,GA,Cherokee,8.7,26.9,29.69589288,25.3084787,1.877761251,3.104824824,0.561196326,0.108619586,0.013228989,1.826608068
33.9512,-83.3673,13059,GA,Clarke,8.3,25.3,34.70410861,19.17341788,10.90291383,5.01154087,1.225698666,0.09164687,0.022387768,3.288043568
31.6263,-84.9801,13061,GA,Clay,17.2,29.8,74.00106872,22.51395201,50.13632372,0.377002838,0.125667615,0.251335213,0.031416902,0.942373099
33.5419,-84.3576,13063,GA,Clayton,11.6,38,38.24311592,7.451694257,25.86907037,4.069153754,1.844066819,0.123186551,0.019962139,2.935135763
30.915,-82.7063,13065,GA,Clinch,12.9,29.6,10.07168677,7.82194168,1.54751785,0.208420168,0.050115219,0.260832409,0,0.391279605
33.9415,-84.5767,13067,GA,Cobb,8.5,22.9,39.03801806,25.28261595,9.330948016,4.213334811,1.576754954,0.132839826,0.016549417,2.698309905
31.5493,-82.8492,13069,GA,Coffee,11.5,34.8,15.6530555,10.46946513,3.505116607,2.035728957,0.185396785,0.014697877,0.004721881,1.473657202
31.1884,-83.7688,13071,GA,Colquitt,12.8,35.2,17.4501522,12.69485212,2.572826615,3.215028926,0.090455096,0.109465032,0.010651635,1.971901661
33.5441,-82.264,13073,GA,Columbia,10.4,30.3,17.73272443,13.54693626,2.549795441,0.784052061,0.860424619,0.062087591,0.026170665,0.687309818
31.154,-83.4305,13075,GA,Cook,12.2,31.4,12.8899219,7.483831504,4.297103415,1.204058667,0.045451078,0.01101015,0.00841938,1.044106444
33.3535,-84.7634,13077,GA,Coweta,10.6,26.8,25.25225615,19.29535267,4.115433711,1.86354432,0.402401385,0.073270513,0.013022234,1.3527756
32.7145,-83.9863,13079,GA,Crawford,13.1,27.3,0.65520369,0.099649439,0.539550408,0.00319144,0,0.000727163,1.88E-05,0.015257853
31.9229,-83.7681,13081,GA,Crisp,14.2,31.1,8.406314463,3.334433754,4.694630583,0.441880525,0.005986755,0.002546553,0.000359955,0.368356878
34.8546,-85.5045,13083,GA,Dade,12.2,32.3,5.465098698,5.299856714,0.042331484,0.084779252,0.062704715,0.004698881,0.0002306,0.055276295
34.4443,-84.1706,13085,GA,Dawson,10.5,27.7,0.541974198,0.504857186,0.00447828,0.010010726,0.011440829,0.007951047,0,0.013246872
30.8783,-84.579,13087,GA,Decatur,12.1,30,13.31460937,8.181237452,4.440314702,0.705596185,0.050000913,0.077389662,0.000405117,0.56526156
33.7715,-84.2264,13089,GA,DeKalb,10,27.3,24.2935273,4.730387986,18.19475265,0.875215818,0.544101991,0.047448733,0.007531308,0.769304642
32.1722,-83.1684,13091,GA,Dodge,13.5,28.5,2.733920724,1.865696275,0.801489456,0.063168381,0.00843933,0.001747582,8.12E-06,0.05653994
32.1572,-83.7988,13093,GA,Dooly,14.8,34.7,1.674792461,1.515581999,0.150778854,0,0.008431586,0,0,0
31.5335,-84.2164,13095,GA,Dougherty,12.4,34.4,39.07319648,9.233353763,28.77856226,0.699431614,0.240340518,0.084736033,0.036184174,0.700019746
33.7018,-84.768,13097,GA,Douglas,12,32.3,32.21611149,16.40591061,12.72897617,3.670740667,0.368464527,0.094542209,0.058837458,2.559380508
31.3228,-84.9037,13099,GA,Early,15.6,31.5,10.11662572,4.752440227,5.041484929,0.302166939,0.011438356,0.040687529,0,0.270574674
30.7101,-82.894,13101,GA,Echols,10.9,28.3,4.816652276,4.096525649,0.141923651,0.261195381,0,0.385276151,0,0.192926809
32.3673,-81.3413,13103,GA,Effingham,13.5,35.2,13.34337148,9.298447725,3.469363695,0.429401627,0.081178613,0.057602212,0.005456452,0.431322722
34.1168,-82.8401,13105,GA,Elbert,13,31.1,23.14060286,11.89126121,9.750355237,1.793283768,0.191698893,0.073603065,0.001675552,1.23200906
32.5897,-82.3017,13107,GA,Emanuel,11.6,36.3,26.22100414,17.85846076,7.349739414,0.877570291,0.147693058,0.051276042,0.007633825,0.806201024
32.1568,-81.8869,13109,GA,Evans,13.4,33.5,7.892610612,4.313695328,2.785418506,0.941515778,0.034226037,0,0.02305101,0.73621974
34.8641,-84.3198,13111,GA,Fannin,12.2,25.9,1.108004856,1.090958761,0.000156308,0.00445774,0.0012389,0.008815439,0,0.006835445
33.414,-84.4942,13113,GA,Fayette,12.9,31.1,33.34738013,22.34217021,8.006611712,2.647602169,1.036084135,0.102120934,0.023450499,1.836942813
34.2632,-85.2143,13115,GA,Floyd,13.6,31,20.41805014,15.6860405,2.907289444,1.808224911,0.457399924,0.071823669,0.022332613,1.273164036
34.2255,-84.125,13117,GA,Forsyth,10.8,29.4,26.50110965,23.0894157,0.564044769,2.056474502,1.59709399,0.077110163,0.010892222,1.162552877
34.3754,-83.2292,13119,GA,Franklin,12.4,29.5,0.89544392,0.693798992,0.139000281,0.03586471,0.011127358,0.000891877,0.00151197,0.04911346
33.7903,-84.467,13121,GA,Fulton,8.7,23.9,23.46050518,9.20600027,12.26283595,1.20738785,1.00186823,0.047654888,0.006885803,0.935260016
34.6912,-84.4556,13123,GA,Gilmer,12.4,29.7,6.21500467,5.492576765,0.061793946,1.096679523,0.000505975,0.01337619,0,0.646751817
33.2293,-82.6107,13125,GA,Glascock,11.8,28.6,69.66612432,62.19060649,6.190400104,0.720618142,0.032446463,0.199164032,0,1.053507216
31.2309,-81.5407,13127,GA,Glynn,11.5,26.2,26.46831236,18.25869795,6.2845287,2.099597101,0.230722765,0.063915512,0.01621649,1.614230978
34.5032,-84.8759,13129,GA,Gordon,10.2,29.3,14.84425503,10.96859236,1.101122705,3.846532621,0.13760992,0.10568254,0.038263688,2.492983795
30.8747,-84.2344,13131,GA,Grady,12.1,33,10.82809505,5.560895948,4.385990246,1.169603753,0.047566729,0.029864475,0.000892086,0.802885535
33.5788,-83.1667,13133,GA,Greene,15.4,29.7,3.756183053,2.068983007,1.527425029,0.223916003,0.006252345,0.018068621,0,0.135454049
33.9617,-84.0236,13135,GA,Gwinnett,8.3,29.5,29.59735914,17.08645873,6.652253001,4.567741205,2.979307465,0.1136026,0.015908859,2.749828477
34.631,-83.5311,13137,GA,Habersham,11.4,31.7,18.03934441,13.6273856,1.202337708,3.747133933,0.752569457,0.138152691,0.033639119,2.285259881
34.3169,-83.8197,13139,GA,Hall,10.9,25.7,26.97338226,20.5506594,1.889286407,6.512415474,0.497066938,0.103073588,0.023088473,3.910207458
33.2704,-83.0007,13141,GA,Hancock,15.8,31.2,22.92721927,5.468212726,17.13316363,0.770528905,0.067132548,0.120684981,0,0.138025154
33.7942,-85.211,13143,GA,Haralson,11.2,27.3,5.184265872,4.90057483,0.19727285,0.100423051,0.022500934,0.010873578,0,0.053043667
32.736,-84.9089,13145,GA,Harris,13.2,28.4,0.6184571,0.198436546,0.399734095,0.007862741,0.009545576,0.008244582,0,0.002496313
34.3508,-82.9642,13147,GA,Hart,13.5,29.9,12.18475551,7.520889964,4.138845155,0.31743245,0.125379137,0.026614503,0,0.373026784
33.297,-85.1283,13149,GA,Heard,12,30.2,6.399612826,6.11068391,0.091540406,0.071616995,0.049675436,0.000672341,0,0.147040725
33.453,-84.1542,13151,GA,Henry,13.5,33.1,33.28365569,18.24059532,12.45130235,1.732600272,0.940700551,0.087878167,0.019600793,1.54357857
32.459,-83.6662,13153,GA,Houston,13.2,31,37.02280549,25.18638171,9.026669074,2.218799436,0.740039759,0.118526328,0.028369795,1.922818823
31.6022,-83.2764,13155,GA,Irwin,12.4,29.2,7.444502137,6.060072585,1.185483896,0.312573711,0.094359407,0,0,0.104586224
34.1339,-83.5664,13157,GA,Jackson,11.2,27.4,4.309977763,3.443841758,0.45777751,0.431716108,0.031080062,0.023477406,0.001159234,0.352641786
33.3165,-83.688,13159,GA,Jasper,12.6,29.3,22.77265949,17.40356885,3.826214206,1.334436245,0.055647341,0.125811109,0,1.361417953
31.8056,-82.6368,13161,GA,Jeff Davis,12.8,30,12.23680268,8.88402685,2.627796919,0.721810585,0.027550145,0.008151382,0,0.689277421
33.0549,-82.4182,13163,GA,Jefferson,16.7,35.3,3.642429136,0.732090216,2.853039416,0.032398541,0.046772165,0,0,0.010527314
32.7924,-81.9635,13165,GA,Jenkins,12.1,29.9,4.088378246,3.17661892,0.747448724,0.118073573,0.024580625,1.00E-04,0,0.139630006
32.7015,-82.6601,13167,GA,Johnson,12.7,34,8.875248962,8.277176458,0.375543286,0.367623679,0.02004008,0.02004008,0,0.182449057
33.0251,-83.5605,13169,GA,Jones,12.4,33.5,7.434348473,3.679484925,3.56489434,0.095079654,0.004425954,0.01531686,0,0.170226422
33.0765,-84.1395,13171,GA,Lamar,11.7,30.6,6.354509133,4.024852473,2.190821958,0.109718315,0.019939372,0.032267807,7.42E-05,0.086553261
31.0379,-83.0628,13173,GA,Lanier,11.4,33.2,3.962239851,3.174607108,0.499259112,0.29848017,0.030195458,0.003985114,0,0.254193074
32.4637,-82.9222,13175,GA,Laurens,14.4,36.2,9.889551912,4.591434138,4.945235671,0.174059673,0.116989488,0.024249153,0.004129331,0.207514141
31.7796,-84.1412,13177,GA,Lee,10.7,31.2,15.18821679,12.21099275,2.175038801,0.261454763,0.469875556,0.028493278,0.004881857,0.298934627
31.8281,-81.4947,13179,GA,Liberty,10.4,34.9,42.58842373,20.07733869,17.47904029,4.841414028,0.907073814,0.291279293,0.279415889,3.554275835
33.7936,-82.4512,13181,GA,Lincoln,14.1,29,4.48387828,3.498788596,0.846116628,0.025012507,0.043639388,0.038630612,0,0.056703055
31.7526,-81.7457,13183,GA,Long,9.8,31.4,10.52594813,7.020750053,2.763975671,0.522251414,0.035581053,0.098160773,0.019610359,0.587870224
30.8338,-83.2677,13185,GA,Lowndes,11.6,31.3,24.62406026,12.81691706,10.24882179,1.116015316,0.423769793,0.110310992,0.033641126,0.990599441
34.5722,-84.0027,13187,GA,Lumpkin,10.8,30.7,1.176436741,1.027609585,0.012915708,0.28134004,0.003868532,0.005306851,0.000324508,0.126411548
33.4829,-82.4814,13189,GA,McDuffie,17.4,33.4,8.797303574,3.150827776,5.395129485,0.14223336,0.050753907,0.008281151,0,0.192311185
31.4967,-81.4085,13191,GA,McIntosh,15.2,30.9,8.45359909,6.483486991,1.692254135,0.155131745,0.069791451,0.021262592,0,0.186803951
32.3584,-84.0425,13193,GA,Macon,13.5,36.4,17.16963109,4.059187938,12.57506984,0.686392995,0.301735554,0.060111255,0.005371741,0.1681548
34.1278,-83.209,13195,GA,Madison,13.3,31.9,2.895644545,2.294122249,0.478420798,0.163240793,0.008624065,0.007112376,0,0.107365058
32.3534,-84.5247,13197,GA,Marion,14,32.9,0.05590747,0.05590747,0,0,0,0,0,0
33.0407,-84.6883,13199,GA,Meriwether,14.8,34.6,4.459599561,2.613776256,1.692267102,0.115779018,0.018683712,0.019162282,0,0.115710204
31.164,-84.7308,13201,GA,Miller,13.3,30.3,3.118873714,1.987838943,1.054934466,0.00708341,0.048979592,0.00145866,0,0.025662065
31.2253,-84.1943,13205,GA,Mitchell,14.4,33.6,12.73155324,4.994266501,7.519362442,0.634294365,0.038327779,0.001094525,0,0.178501946
33.0139,-83.9187,13207,GA,Monroe,14.5,31.9,8.711837385,3.482968304,5.026118493,0.159332822,0.048370399,0.03673968,0.003784438,0.113856081
32.1734,-82.5348,13209,GA,Montgomery,13.4,36.2,13.40201973,9.355347576,3.531946515,0.440224794,0.032883921,0,0,0.481841722
33.5909,-83.4923,13211,GA,Morgan,11.6,26.5,16.93292318,8.576888775,7.927342041,0.338361187,0.060180414,0.013841811,0,0.354670232
34.7884,-84.7481,13213,GA,Murray,12.7,32.5,13.54245349,11.53468771,0.084695502,2.586994546,0.041388268,0.067438138,0.017565043,1.796678862
32.51,-84.8771,13215,GA,Muscogee,13.4,28.8,28.51778245,11.81676524,14.33975395,1.86799502,0.589926857,0.123833597,0.071958112,1.575544767
33.555,-83.8502,13217,GA,Newton,10.4,32.9,25.33239487,10.90362346,12.79647739,1.294744079,0.35669366,0.042970568,0.015636084,1.21699372
33.835,-83.4371,13219,GA,Oconee,9.3,28.8,30.37197363,26.23702442,2.011665634,1.389129741,1.089053996,0.042738592,0.004386254,0.987104751
33.8807,-83.0807,13221,GA,Oglethorpe,13,30.1,4.330564743,3.008251437,1.050939202,0.159046125,0.093616809,0.006551295,0,0.171206001
33.9205,-84.8673,13223,GA,Paulding,11,28.6,24.67216908,18.33780509,4.931877386,1.283927277,0.219175217,0.078173325,0.012402237,1.092735799
32.5688,-83.8269,13225,GA,Peach,13.6,34.4,19.37555335,8.957327914,9.398878382,0.918761143,0.196324919,0.051656623,0.005649811,0.765715812
34.4643,-84.4656,13227,GA,Pickens,14.2,26.7,5.62094409,5.373210466,0.054796254,0.250531952,0.011470228,0.013672042,0,0.167795113
31.3588,-82.2128,13229,GA,Pierce,11.3,28.5,11.76084414,10.67864424,0.484369996,0.646921371,0.019292346,0.085526372,0.005527896,0.487483285
33.0923,-84.3892,13231,GA,Pike,11.7,26.2,0.028419648,0.028419648,0,0,0,0,0,0
34.0018,-85.1881,13233,GA,Polk,10.4,34.5,11.80109092,8.929416328,1.746236693,1.148483384,0.08881464,0.034363084,0.000282047,1.001978099
32.2323,-83.476,13235,GA,Pulaski,13.6,31.7,10.09267011,6.769045105,2.991374036,0.153624376,0.077435748,0.032595117,0.007390004,0.214830108
33.3218,-83.3728,13237,GA,Putnam,12.8,30,3.004420304,1.474475595,1.417267177,0.061554927,0.005204061,0.006923358,0,0.100550105
31.8673,-85.0188,13239,GA,Quitman,16.9,34,34.95913162,12.98497098,21.60845016,0.531974713,0.000271859,0.043111687,0,0.322326835
34.8817,-83.4021,13241,GA,Rabun,13,29.4,0.589922064,0.588944062,0,0.005204763,0.000978001,0,0,0
31.7626,-84.7542,13243,GA,Randolph,16.7,33.7,24.04714465,9.344072554,14.32391298,0.356231107,0.124143314,0.000305249,0,0.254710655
33.3596,-82.0735,13245,GA,Richmond,13.5,34.1,39.35568923,14.4612123,22.19132321,1.986700011,0.69021253,0.143234715,0.112622645,1.75708386
33.6542,-84.0266,13247,GA,Rockdale,13.1,36,41.10812834,18.68897748,18.36472747,4.737724395,0.807211986,0.152062635,0.028793101,3.066355646
32.2617,-84.3148,13249,GA,Schley,12.6,30.4,0.554005852,0.424811178,0.099436502,0,0.007439543,0,0,0.022318628
32.7506,-81.6119,13251,GA,Screven,13.6,33,20.72087314,11.15108063,9.145788665,0.332621616,0.033687855,0.049868609,0,0.340447349
30.9388,-84.8688,13253,GA,Seminole,14.2,30.7,5.610586278,4.381052941,1.112741435,0.092596517,0.002347556,0.022236448,0,0.092207869
33.2609,-84.2841,13255,GA,Spalding,12.9,32.4,15.62514384,9.057660402,5.929200532,0.360876101,0.164337922,0.023828854,0.011493179,0.438622946
34.5539,-83.2935,13257,GA,Stephens,12.6,30.1,13.29195994,9.047974035,3.61538688,0.268692033,0.13771915,0.038880048,0.002567501,0.449432407
32.0785,-84.8352,13259,GA,Stewart,13.7,34.2,9.823710433,4.977391184,4.628250842,0.17363468,0.002974275,0.016223526,0.011045787,0.187824824
32.0399,-84.197,13261,GA,Sumter,13.8,32.7,21.52335987,8.274226905,12.26598192,0.663678501,0.425807662,0.026241325,0.010840069,0.520261979
32.6995,-84.533,13263,GA,Talbot,16.3,33.3,22.02915403,5.248953203,16.59428518,0.364166064,0,0.029133285,0,0.156782206
33.5661,-82.8788,13265,GA,Taliaferro,16.2,31.4,68.28300176,25.14412547,40.79125694,1.731248872,0.407687824,0.111424742,0,1.828506939
32.0458,-82.0581,13267,GA,Tattnall,10.2,33.1,3.912004736,2.900021768,0.838858547,0.104628589,0.005032432,0.006644476,0.006972392,0.154475097
32.5555,-84.2505,13269,GA,Taylor,14.5,28.8,4.607214831,2.19586027,2.261021974,0.082221631,0.109140474,0.009223867,0,0.031968209
31.9298,-82.939,13271,GA,Telfair,12.3,30.9,2.29981566,1.46512703,0.716849093,0.12793632,0,0,0,0.117839534
31.777,-84.437,13273,GA,Terrell,14.9,31.6,6.758959778,0.959395212,5.658760455,0.075873016,0.043541553,0.006990947,0,0.090271634
30.8638,-83.9193,13275,GA,Thomas,14,34,27.36685378,15.45960846,10.72496363,0.998467185,0.118505469,0.112517942,0.008626694,0.942631594
31.4574,-83.5266,13277,GA,Tift,13.2,34,8.592865096,3.054175724,4.99461754,0.474410081,0.165335159,0.01731338,0,0.361423337
32.1216,-82.3312,13279,GA,Toombs,13.6,31.5,18.12002536,12.39404511,3.931281055,1.828251561,0.093510745,0.047297968,0.007835195,1.6460553
34.9167,-83.7373,13281,GA,Towns,12.9,27.4,0.013524981,0.013524981,0,0,0,0,0,0
32.4039,-82.5673,13283,GA,Treutlen,12.3,32.9,5.728189003,2.888840165,2.76641517,0.06996636,0.012193487,0,0,0.060740293
33.0335,-85.0284,13285,GA,Troup,12.6,30,16.22963321,9.13200121,6.253700142,0.490413737,0.290475696,0.04688744,0.024696749,0.481871977
31.7164,-83.6241,13287,GA,Turner,14.3,34.6,5.91096421,3.296382848,2.534270638,0.11397586,0.010710854,0.013192842,0,0.05640701
32.6672,-83.4271,13289,GA,Twiggs,14.5,32.8,0.165594415,0.09466645,0.051317823,0,0,0,0,0.01961014
34.8341,-83.9907,13291,GA,Union,15.9,27.2,1.389357809,1.36031689,0,0.021568578,0.001239603,0.001880251,0,0.025921069
32.8813,-84.2993,13293,GA,Upson,11.9,32,25.04569772,14.38628925,9.715887782,0.617853019,0.125561304,0.05859578,0.018414172,0.740949493
34.7356,-85.301,13295,GA,Walker,12.4,32.1,25.49560981,23.66972085,0.963584214,0.507003989,0.089017693,0.052678518,0.010733227,0.709875362
33.7816,-83.7339,13297,GA,Walton,11.6,34.4,16.88145165,13.4403965,2.697381253,0.613572247,0.150849763,0.041625307,0.007504945,0.543693872
31.0538,-82.4237,13299,GA,Ware,12.3,35.5,39.25201802,28.72615232,8.963323551,1.558980061,0.245350613,0.096892582,0.011604015,1.208694911
33.4089,-82.6768,13301,GA,Warren,15.8,32,2.087917755,0.661908837,1.421449297,0.008395553,0,0.004559616,0,0
32.9695,-82.7959,13303,GA,Washington,13,32.2,25.15138488,12.70091928,11.9781906,0.820376372,0.102603519,0.020903005,0,0.348768411
31.5514,-81.9167,13305,GA,Wayne,13.1,31.8,28.68140622,23.65626273,3.519318466,1.481534874,0.217628543,0.111441053,0.006644739,1.170110781
32.0466,-84.551,13307,GA,Webster,14.6,32.1,1.784478144,1.394491253,0.381690377,0.008296498,0,0,0,0.008296498
32.1171,-82.7246,13309,GA,Wheeler,12.1,31.9,4.936835782,4.237758095,0.52705648,0.093357444,0.078591403,0,0.000250921,0.093178882
34.8056,-84.9672,13313,GA,Whitfield,13.2,33.5,22.63208931,16.90245552,0.802673153,7.855624522,0.33868044,0.17623566,0.016006323,4.396038235
31.9729,-83.4323,13315,GA,Wilcox,11.4,31.5,0.786683208,0.604696001,0.171237928,0.009412008,0.01011141,0,0,0.000637872
33.7819,-82.7432,13317,GA,Wilkes,15.5,32.9,18.53864192,9.516188662,8.222531771,0.785383846,0.023849629,0,0.009440196,0.766631679
32.8024,-83.1712,13319,GA,Wilkinson,14.8,34.5,21.71679477,12.36538035,8.544016694,0.606259603,0.055499884,0.041827878,0.010386369,0.699683583
31.5515,-83.8509,13321,GA,Worth,13.9,36.7,7.841309275,4.673165551,3.036474418,0.03570068,0.005065346,0.02022599,0.008290147,0.098087806
19.5987,-155.519,15001,HI,Hawaii,8.1,22.7,38.97750499,12.71911629,0.189701682,4.530119142,9.623275579,0.152448294,4.46954628,11.82341687
21.5008,-158.105,15003,HI,Honolulu,8.4,22.3,23.12878292,6.162855337,0.727187527,2.365928996,7.839510182,0.080801237,2.243695552,6.074733105
21.1709,-156.948,15005,HI,Kalawao,11.3,21.5,0,0,0,0,0,0,0,0
22.0396,-159.596,15007,HI,Kauai,8.3,20.6,39.20858911,11.42466007,0.163162555,3.928096353,12.22392917,0.130295787,4.065210356,11.20133114
20.8596,-156.565,15009,HI,Maui,7.7,22.4,29.75457135,12.29797533,0.16766582,2.965574791,6.971474256,0.14187268,2.775812479,7.399770677
43.4511,-116.241,16001,ID,Ada,7.5,25.4,17.17356616,15.82859716,0.137619098,0.902973618,0.399598287,0.101277705,0.033088657,0.673385231
44.8896,-116.454,16003,ID,Adams,11.6,27.6,10.669243,10.10748706,0.025150904,0.162939216,0.101390968,0.154617378,0,0.280596705
42.6685,-112.225,16005,ID,Bannock,10,28.1,28.82256379,26.67311424,0.167292002,1.601953726,0.377518172,0.401213396,0.070910922,1.132515113
42.2848,-111.33,16007,ID,Bear Lake,8.9,28.7,25.87994814,24.73105353,0.05011694,0.594601553,0.171877817,0.133645169,0.016705646,0.776549052
47.2176,-116.659,16009,ID,Benewah,9.4,30.1,25.76901545,22.29116617,0.038882108,0.389389891,0.051500918,2.297925345,0,1.089540843
43.2166,-112.398,16011,ID,Bingham,9.9,33.3,20.4421461,17.5148491,0.045156802,3.412437586,0.19012129,0.373333176,0.009734937,2.308950746
43.4119,-113.98,16013,ID,Blaine,6.6,19.2,28.420783,21.67598017,0.052872232,9.02304762,0.309096585,0.269889518,0.044889386,6.068055073
43.9891,-115.73,16015,ID,Boise,9.6,22.4,63.72571563,60.99660504,0.095458624,2.580630667,0.180512914,0.419477011,0.071143993,1.962518038
48.3,-116.601,16017,ID,Bonner,7.6,24.7,20.04429764,19.22378299,0.021369716,0.414794571,0.07522419,0.170852382,0.056469114,0.496599223
43.3877,-111.615,16019,ID,Bonneville,8.5,29.4,23.12215314,20.74398624,0.131199844,2.999274553,0.216741453,0.146731623,0.007621703,1.87587231
48.7669,-116.463,16021,ID,Boundary,11,27.3,14.56968487,13.89778061,0.041259107,0.403844873,0.095614333,0.192457995,0.015702992,0.326869844
43.7229,-113.172,16023,ID,Butte,9.5,28.5,21.39305464,20.09957863,0.034590108,1.772418982,0.031536621,0.034590105,0.085875703,1.106883422
43.4633,-114.806,16025,ID,Camas,9.4,25.7,99.99999944,94.0913153,0.268576553,6.714413652,0.089525515,0.537153081,0,5.01342884
43.6251,-116.709,16027,ID,Canyon,9.5,33.4,19.31212827,16.33587445,0.095880082,4.187755999,0.168597022,0.174027827,0.043175291,2.494573621
42.7705,-111.562,16029,ID,Caribou,10.5,27.5,31.45379007,29.15842066,0.015241929,2.318434255,0.083585429,0.10053138,0.120318492,1.975692133
42.2839,-113.6,16031,ID,Cassia,9,30.5,28.53455348,24.28006415,0.024998042,5.398083725,0.101259073,0.090226204,0.033801395,4.004204477
44.2839,-112.351,16033,ID,Clark,8.5,31.4,100,72.40325901,0.712830961,40.52953177,0.509164952,1.018329957,0,25.35641597
46.6736,-115.657,16035,ID,Clearwater,11.1,30.6,17.64034148,16.58419282,0.0450532,0.681813406,0.128403536,0.302630554,0.072990657,0.507070513
44.2411,-114.282,16037,ID,Custer,9.4,26.3,42.98642117,41.97251776,0.06868132,1.402806562,0.032818341,0.218850181,0.022893773,0.670659805
43.354,-115.469,16039,ID,Elmore,8.6,29.8,32.22324991,26.46783764,1.061726247,3.862821473,1.366728032,0.251502554,0.155375037,2.920080324
42.1811,-111.813,16041,ID,Franklin,7.9,30.7,7.161530521,6.884809186,0,0.247614837,0,0.039105271,0,0.237616065
44.2288,-111.482,16043,ID,Fremont,9,28.9,12.33883368,10.93154082,0.051641549,2.281732405,0.007551729,0.044163392,0.015103459,1.288832714
44.0616,-116.398,16045,ID,Gem,9.9,28.5,30.26095138,28.56936568,0.040714374,1.784616256,0.179276452,0.181744279,0.027293488,1.262557174
42.971,-114.812,16047,ID,Gooding,9.8,30,1.063607848,0.792375134,0.003021086,0.345182084,1.14E-05,0.009453573,0,0.258746679
45.8441,-115.468,16049,ID,Idaho,9.5,25.7,34.32711395,32.87012446,0.118199802,0.8335766,0.09435345,0.372686318,0.018442245,0.853307729
43.8201,-112.311,16051,ID,Jefferson,8.8,32.7,11.69911983,9.587067586,0.057462372,2.69866176,0.084589681,0.079351395,0.00765111,1.882997711
42.6899,-114.264,16053,ID,Jerome,7.7,33.3,21.91358391,17.76488248,0.039315505,6.514598651,0.077686655,0.280875826,0.00537463,3.745448883
47.6744,-116.702,16055,ID,Kootenai,9.6,25,24.59938618,23.43132254,0.063448809,0.903746016,0.195225745,0.214850654,0.010587847,0.68395059
46.8162,-116.712,16057,ID,Latah,6.4,24.3,11.82019534,11.22744704,0.057464873,0.296287146,0.138503795,0.053591837,0.000218684,0.342969159
44.9433,-113.933,16059,ID,Lemhi,12.1,26.8,36.86499265,35.1147396,0.114049251,1.024655682,0.090251099,0.259686252,0.034605377,1.251661007
46.237,-116.426,16061,ID,Lewis,10.5,29.7,48.48661575,45.91532704,0.130855799,0.903151912,0.209369269,1.258821571,0.026171159,0.946070913
43.0024,-114.138,16063,ID,Lincoln,8.3,32.3,97.42763043,78.00412236,0.364823335,27.76105367,0.378753442,0.710445467,0.057603687,17.91188201
43.7841,-111.659,16065,ID,Madison,5.5,24.5,18.90599852,17.80007111,0.090469326,1.1509521,0.148225251,0.036024678,0.023062189,0.808145924
42.8543,-113.638,16067,ID,Minidoka,10.8,34.2,17.60423291,13.42286887,0.04862748,6.983085414,0.079456017,0.281579547,0,3.771701015
46.3268,-116.75,16069,ID,Nez Perce,11,30.9,18.0592906,17.35244775,0.044709795,0.379650722,0.090929826,0.170601306,0.003359644,0.39724231
42.195,-112.539,16071,ID,Oneida,12.2,31.3,11.45665768,11.17759202,0,0.585304545,0,0,0,0.279065645
42.5815,-116.17,16073,ID,Owyhee,9.5,30.4,18.74556138,15.49201942,0.008676037,3.841190647,0.101827926,0.457742711,0.008676036,2.676619307
44.0067,-116.761,16075,ID,Payette,9.2,33.3,23.89951534,20.95563655,0.062156874,4.289181547,0.15768592,0.273106431,0.029097789,2.421831823
42.6937,-112.841,16077,ID,Power,8.2,32.1,13.88168606,11.30878764,0,2.123391133,0,0.85725163,0,1.715646818
47.3529,-115.892,16079,ID,Shoshone,10.2,31.1,8.959027773,8.563382962,0.023233825,0.244145523,0.003295979,0.105135672,0.009934933,0.254044418
43.7594,-111.208,16081,ID,Teton,6,24.1,8.907499723,7.405523574,0.018115198,1.57030466,0.041673734,0.019665684,0,1.422521519
42.356,-114.667,16083,ID,Twin Falls,8.7,27.6,6.205942767,5.377918774,0.022093612,1.092043534,0.050812296,0.039302052,0.006287018,0.709529043
44.7666,-115.566,16085,ID,Valley,8.4,24.1,18.61462494,17.95342668,0.029287866,0.441674167,0.081119447,0.077565079,0,0.473225892
44.4524,-116.785,16087,ID,Washington,11.2,30.3,20.91342558,19.76126317,0,1.099108375,0.104163133,0.230720471,0,0.817278786
39.9879,-91.1885,17001,IL,Adams,10.1,37,15.41878121,14.95432825,0.132490197,0.113521531,0.144741916,0.009198581,0.00439764,0.173624626
37.1915,-89.3375,17003,IL,Alexander,11.4,28.4,21.21933856,15.06955663,5.281981213,0.541401481,0.055644888,0.09037988,0,0.721776048
38.8868,-89.4356,17005,IL,Bond,10,29.6,7.212030348,6.757610885,0.150900759,0.246144941,0.100644268,0.050300354,0,0.152574101
42.3231,-88.8234,17007,IL,Boone,9.4,33.7,21.06437327,18.45102289,0.327527266,3.128983853,0.344970273,0.032640251,0.011077264,1.89713536
39.9618,-90.7504,17009,IL,Brown,8.2,27.6,23.96799448,7.682354005,13.02587546,3.774082999,0.055538975,0.092527927,0.014415453,3.097282555
41.4041,-89.5287,17011,IL,Bureau,11.3,29.1,35.76844743,34.80781699,0.124507097,0.891705797,0.207001725,0.051819878,0.010333062,0.566968652
39.1693,-90.6676,17013,IL,Calhoun,11.4,29.1,11.34807162,11.26947071,0,0.137551585,0.058950679,0,0,0.019650226
42.0687,-89.9343,17015,IL,Carroll,12.2,28.6,18.72604886,18.12928065,0.227464737,0.434633713,0.058490934,0.01997977,0.000421251,0.290411516
39.9735,-90.2474,17017,IL,Cass,10.6,28,11.2013936,10.97586342,0.065635408,0.169562527,0.008053454,0.036651517,0,0.115189757
40.1401,-88.1992,17019,IL,Champaign,7.4,25.1,15.77293879,12.35553541,1.124254144,0.894622836,1.423522774,0.045654298,0.015233622,0.808738576
39.5458,-89.2773,17021,IL,Christian,10.5,31.7,11.02554784,10.00370099,0.753583663,0.34119264,0.04119328,0.016181638,0.000205957,0.210682345
39.3336,-87.7877,17023,IL,Clark,11.5,32.7,8.75892972,8.56372107,0.036730946,0.065806756,0.021263916,0.029052569,0,0.108161191
38.7542,-88.4902,17025,IL,Clay,10.8,31,15.58998421,15.35901513,0.007238509,0.091569743,0.031691507,0.014477017,0,0.17756205
38.6065,-89.4225,17027,IL,Clinton,8.7,29.5,15.17154384,11.88813358,2.480864027,0.975428212,0.033130929,0.052486676,0.005304353,0.711624219
39.5203,-88.2218,17029,IL,Coles,8.9,26.3,15.37545209,14.57957521,0.300940537,0.292755144,0.116452851,0.04112879,0,0.337354677
41.8401,-87.8168,17031,IL,Cook,8.5,25.3,7.194721403,4.939602831,1.229972103,0.806436494,0.570536866,0.018811963,0.001458415,0.434339227
39.0027,-87.7596,17033,IL,Crawford,10.6,31.3,14.8784036,10.31923576,3.906077675,0.767496471,0.039117,0.026284056,0,0.587689052
41.8935,-88.7703,17037,IL,DeKalb,8.3,28.3,28.31506194,23.17168638,2.615768622,2.81389379,0.783665037,0.05330237,0.007579481,1.683059999
40.1746,-88.9041,17039,IL,De Witt,10.8,30.5,3.943839188,3.817687484,0.010540858,0.077307312,0.008252581,0,0,0.107358285
39.7694,-88.2174,17041,IL,Douglas,10.8,30.5,9.865965972,9.672523591,0.017594477,0.26311394,0.085392924,0.005776976,0,0.084678061
41.852,-88.0856,17043,IL,DuPage,8.1,23,23.58672077,18.50525421,1.147980781,2.795484939,2.362734472,0.057071559,0.006643269,1.507036483
39.6786,-87.7456,17045,IL,Edgar,10.1,30.3,35.98344093,35.44327813,0.128444838,0.234106914,0.071683181,0.044164802,0.011426474,0.284443528
38.4165,-88.0533,17047,IL,Edwards,10.5,31.3,18.49959986,18.05475293,0.103414437,0.194307376,0.044636215,0,0,0.296796258
39.0598,-88.5899,17049,IL,Effingham,10.7,31.8,17.14316886,16.82667201,0.042555883,0.23315865,0.096556391,0.00634812,0,0.171036396
39.0002,-89.0241,17051,IL,Fayette,10.3,33,34.59701182,33.89397704,0.119519943,0.327182012,0.102384546,0.080857087,0.013550136,0.386723063
40.5972,-88.2233,17053,IL,Ford,10.6,28.2,18.39287479,17.91109485,0.077821381,0.325596794,0.041328934,0.095421704,0,0.267207939
37.9923,-88.9242,17055,IL,Franklin,11.6,30.2,10.7227956,10.5473429,0.029042633,0.126324803,0.018804269,0.028744996,0,0.098860814
40.4728,-90.2075,17057,IL,Fulton,11.6,30.7,17.0016241,16.71164765,0.039448792,0.138729882,0.029389094,0.029550548,0,0.191587994
37.7627,-88.2304,17059,IL,Gallatin,10.8,28.4,75.23049582,73.418648,0.178922884,1.05564502,0.035784577,0.214707462,0,1.382432974
39.3562,-90.3905,17061,IL,Greene,11.5,28.7,11.92694913,11.71413224,0.058599895,0.048806199,0.003137781,0.016400719,0,0.134678475
41.2851,-88.4185,17063,IL,Grundy,8.6,30.4,18.59072647,17.55777737,0.153237495,1.35260627,0.131870021,0.048770802,0.006526101,0.692544755
38.0815,-88.5391,17065,IL,Hamilton,11.1,28.2,14.11400245,13.74027299,0.153718813,0.134112205,0.037260521,0.0065388,0.011762163,0.164449167
40.4037,-91.1647,17067,IL,Hancock,11.2,28.6,38.44182571,37.84141173,0.104984857,0.207393614,0.078028788,0.041882471,0.01423439,0.361283496
37.5182,-88.2668,17069,IL,Hardin,13,30.6,16.5443611,16.23647175,0.029941251,0.046780371,0.162521112,0,0.000583558,0.114843483
40.818,-90.9251,17071,IL,Henderson,11.8,30.4,1.358487781,1.344784346,6.27E-05,0,0,0,0,0.013640703
41.3531,-90.1314,17073,IL,Henry,11.1,30.5,18.50815334,17.4480659,0.447084808,0.68448992,0.073719335,0.035542454,0,0.503740837
40.7473,-87.8243,17075,IL,Iroquois,12.4,33.9,21.85715374,20.19314726,0.135161567,1.951217885,0.060810105,0.033796135,0.003364964,1.430873756
37.7851,-89.3821,17077,IL,Jackson,9,31.5,21.99840575,18.57584533,2.207506875,0.839355283,0.270417416,0.065849342,0.005199592,0.873587283
39.0101,-88.1538,17079,IL,Jasper,10.2,30.2,14.94266102,14.6560701,0.009927105,0.120647564,0.079130415,0.042050878,0,0.155482538
38.3005,-88.924,17081,IL,Jefferson,11.1,30.2,22.01518014,19.7813605,1.501326432,0.506412772,0.079334999,0.048520744,0.00628419,0.598353291
39.0855,-90.3565,17083,IL,Jersey,10.4,33,15.65233166,15.18383338,0.087660443,0.149592872,0.086025934,0.026702576,0.008688191,0.25942116
42.3658,-90.2125,17085,IL,Jo Daviess,13,29.5,19.94055632,19.27051906,0.081705308,0.586308038,0.043396502,0.050053405,0.012283687,0.482598323
37.4597,-88.8809,17087,IL,Johnson,10.5,29.4,21.11929666,13.34593074,6.519317415,1.338634298,0.044184083,0.018488953,0,1.191375626
41.9388,-88.4286,17089,IL,Kane,7.7,25.3,18.48856118,15.0798238,0.937278397,3.346631556,0.658311175,0.068401963,0.007617237,1.737128618
41.1377,-87.8618,17091,IL,Kankakee,9.1,30.1,12.75300929,9.172677436,2.669790163,1.162441775,0.096705682,0.030260731,0.001733392,0.781841872
41.5906,-88.4288,17093,IL,Kendall,8.3,33.7,15.66282905,13.54955259,0.635004823,2.068129057,0.434966692,0.048556514,0.009140468,0.985607983
40.9318,-90.2132,17095,IL,Knox,9.8,26.2,17.97079579,14.65514749,2.239374674,1.043180139,0.102347595,0.030558815,0.00125945,0.942107754
42.3233,-88.0037,17097,IL,Lake,8.4,28.4,35.26383711,28.96819596,1.596198619,3.652490673,2.38102603,0.107086306,0.018735491,2.192594652
41.344,-88.8859,17099,IL,LaSalle,10.4,27.1,20.70865476,19.5467596,0.252186343,1.576370158,0.097488049,0.057899913,0.001846352,0.752474502
38.72,-87.7268,17101,IL,Lawrence,11.7,28.9,14.2191098,13.93245549,0.052265928,0.107391298,0.010263944,0.02250639,0.005940712,0.195677343
41.7461,-89.3003,17103,IL,Lee,10.1,32.6,10.86749296,9.798561526,0.512771074,0.505224252,0.096315151,0.017348633,0.005550776,0.436945747
40.8916,-88.5577,17105,IL,Livingston,9.5,29.2,8.448001844,8.25087141,0.044478506,0.183244338,0.019186904,0.017147937,0,0.11631709
40.1245,-89.3675,17107,IL,Logan,9.8,29.2,36.44458503,29.69449331,5.28703977,1.572232206,0.192223591,0.079200405,0,1.19162784
40.4562,-90.6779,17109,IL,McDonough,9.3,26.8,12.66810471,11.21704143,0.670142886,0.338938978,0.479923305,0.003700671,0.001641195,0.295655256
42.3244,-88.4523,17111,IL,McHenry,10.1,27.7,43.17121436,38.90849432,0.470561381,4.439097069,1.286344278,0.137353663,0.0101304,2.358330329
40.4909,-88.8473,17113,IL,McLean,7,29.3,27.41969734,22.56978914,2.329903068,1.563243932,1.165835448,0.066384316,0.011827252,1.275958164
39.86,-88.9616,17115,IL,Macon,10,29.7,26.91715147,23.5230033,2.433740804,0.39943172,0.343056609,0.051278274,0.006724422,0.559348038
39.261,-89.9245,17117,IL,Macoupin,10.5,31,16.11736011,15.83641381,0.037124642,0.157686452,0.042423976,0.039743138,0.002647166,0.159007391
38.8297,-89.9049,17119,IL,Madison,10,32.3,35.8125532,30.62376795,3.657404443,1.118940506,0.332201565,0.092688091,0.017277713,1.089213371
38.6496,-88.919,17121,IL,Marion,10.5,33.5,27.25698339,25.81620545,0.71127344,0.421150718,0.092001467,0.09720927,0.00507138,0.535222353
41.0332,-89.3448,17123,IL,Marshall,11.2,29.1,18.51919514,18.08538496,0.079113924,0.231204997,0.085708958,0.03164557,0,0.237341771
40.2396,-89.9168,17125,IL,Mason,11.1,31.7,31.11233655,30.39874207,0.066707916,0.275103002,0.129494453,0.093318178,0,0.424073915
37.219,-88.7077,17127,IL,Massac,11.2,30.7,9.884215735,8.935110123,0.640583504,0.221134808,0.024140846,0.037099054,0,0.247282203
40.0274,-89.8022,17129,IL,Menard,10.2,28.3,2.761661269,2.722458265,0.012933514,0.035492588,0.002586701,0.008330049,0,0.015352751
41.2053,-90.7414,17131,IL,Mercer,11.4,31.2,18.0579302,17.76531929,0.100137911,0.290719087,0.022055812,0.00045876,0,0.169958436
38.2784,-90.1773,17133,IL,Monroe,11.4,33.2,29.23656601,28.60442237,0.098425137,0.404704545,0.156267808,0.049187249,0.014313057,0.313950323
39.231,-89.4789,17135,IL,Montgomery,10.8,31.3,23.67059786,22.96132848,0.196470712,0.362103954,0.07578707,0.052158153,0,0.384853406
39.7156,-90.2015,17137,IL,Morgan,11.3,28.8,32.30474333,29.76330844,1.553454005,0.531749156,0.140149516,0.081238626,0,0.766592747
39.6415,-88.6193,17139,IL,Moultrie,10.2,28.6,3.021704979,2.962041544,0.024544876,0.004582408,0.006367861,0.00275696,0,0.025993749
42.0426,-89.3207,17141,IL,Ogle,10.4,31.2,17.58797134,15.77255163,0.272862024,2.825464379,0.059298008,0.054081999,0.007477055,1.421700606
40.788,-89.76,17143,IL,Peoria,9.6,28.8,25.50342065,20.06660019,3.247418593,0.722423132,1.25068911,0.051171547,0.008055957,0.879485233
38.0837,-89.367,17145,IL,Perry,10.6,29.1,21.45420316,19.44378539,1.227157373,0.349747994,0.077030993,0.046704342,0.019657342,0.639867712
40.0103,-88.5911,17147,IL,Piatt,10.7,29,3.031813251,2.931155301,0.002356343,0.020203364,0.026690977,0.001450219,0.003647869,0.066512525
39.6225,-90.8863,17149,IL,Pike,12,32.6,18.44201183,18.26668289,0.038721568,0.143917181,0.011944627,0.006798805,0.00605024,0.111813705
37.4127,-88.5615,17151,IL,Pope,10.9,29.5,24.20346569,23.2452614,0.44855453,0.150625994,0.048815194,0.062079449,0,0.398755167
37.223,-89.1266,17153,IL,Pulaski,12.1,27.3,20.84293692,14.61044315,5.309793247,0.346916167,0.104619065,0.153215147,0,0.664866319
41.2045,-89.2858,17155,IL,Putnam,10.5,29.9,10.92009169,10.73694146,0,0.232564926,0.033300033,0,0,0.149850147
38.0521,-89.8252,17157,IL,Randolph,10.1,27.7,11.45849642,10.24886298,0.797811434,0.473463972,0.045513955,0.022158616,0.006089842,0.338059512
38.7124,-88.0851,17159,IL,Richland,11,28.8,5.787274758,5.653076021,0.027390296,0.024222865,0.03964963,0.022453006,0,0.044705848
41.4673,-90.5674,17161,IL,Rock Island,10.8,31.7,17.69473007,13.86285019,2.022608297,2.331146599,0.232636093,0.047839219,0.001195752,1.527600503
38.4703,-89.9284,17163,IL,St. Clair,12.7,33.2,33.64078061,22.15563596,9.63088366,1.302203325,0.446119436,0.088453976,0.030839789,1.288847804
37.7531,-88.5407,17165,IL,Saline,12,30.1,39.04778872,35.67678615,2.261141223,0.599822643,0.099598881,0.124635076,0.012041906,0.873585568
39.7582,-89.6589,17167,IL,Sangamon,10.7,28.5,24.25141186,22.39474483,0.897618155,0.34340331,0.479279956,0.038215224,0.002158588,0.439395122
40.158,-90.6151,17169,IL,Schuyler,10.6,31.7,14.14591089,13.91037758,0.040094908,0.068506739,0,0.013255567,0,0.182182839
39.6441,-90.4747,17171,IL,Scott,9.9,30.4,4.160859579,4.067488902,0,0.186741365,0.074696548,0,0,0.018674137
39.3911,-88.8055,17173,IL,Shelby,10.1,30.6,24.29915035,23.95566107,0.025457582,0.216698494,0.085743966,0.040709045,0.013415015,0.17816367
41.0934,-89.7975,17175,IL,Stark,12.2,30.2,30.02026271,29.25559057,0.148270772,0.437824994,0.016893916,0.044325941,0,0.555181489
42.3518,-89.6623,17177,IL,Stephenson,12.5,32.9,7.447060444,6.572473255,0.583354613,0.126153005,0.058323893,0.018344856,0.005323637,0.209240191
40.5075,-89.5134,17179,IL,Tazewell,9.6,30.6,43.12429892,41.32435832,0.485837717,0.882151107,0.332995545,0.131193464,0.010571652,0.839342276
37.4713,-89.2551,17181,IL,Union,11.9,28.2,13.26502859,12.73568853,0.153625094,0.334393995,0.042751711,0.068884499,0.010609053,0.253469738
40.1834,-87.7328,17183,IL,Vermilion,12.7,35.4,14.54329174,13.31049326,0.623462362,0.589596905,0.114432582,0.028436585,0.004900459,0.461566476
38.4461,-87.8443,17185,IL,Wabash,12.6,32.2,8.560870582,8.237034793,0.088215231,0.140645748,0.027805988,0.007575327,0,0.200239148
40.8488,-90.615,17187,IL,Warren,10.5,30.5,6.649266934,5.784586674,0.248282511,0.677998034,0.059281008,0.024417124,0,0.532699586
38.3522,-89.4105,17189,IL,Washington,10.5,28.6,11.0622995,10.86036173,0.083660502,0.159157001,0.006795325,0.013590649,0,0.097891301
38.4296,-88.4256,17191,IL,Wayne,10.3,29.2,20.04045519,19.72048776,0.04343171,0.145796215,0.069407259,0.011933174,0,0.195195282
38.0875,-88.1796,17193,IL,White,10.6,28.7,29.23662884,28.45655859,0.203155824,0.563357431,0.077271717,0.108936287,0.027275827,0.363430645
41.7562,-89.9141,17195,IL,Whiteside,10.5,28.7,22.31151412,21.04450376,0.206441945,1.795913531,0.076815639,0.07069027,0.004248439,0.908814075
41.445,-87.9786,17197,IL,Will,8.5,28,32.13050392,24.53809652,4.025736483,4.066326706,1.396265763,0.084513538,0.006484446,2.079407133
37.7303,-88.9299,17199,IL,Williamson,10.5,31.6,14.45837796,13.53418812,0.402234428,0.273615775,0.118718467,0.026515259,0.000451595,0.376270088
42.3363,-89.1609,17201,IL,Winnebago,11.7,33.9,25.84869674,22.22948125,1.54483552,2.031171314,0.585684603,0.07056308,0.008045737,1.41008657
40.7882,-89.2111,17203,IL,Woodford,9.6,30.8,11.73007753,11.39356314,0.066283286,0.144021128,0.089641299,0.009260885,0.005265052,0.166063926
40.7457,-84.9366,18001,IN,Adams,13.9,32.8,8.645048653,8.306831187,0.050246494,0.448167058,0.019849101,0.026526122,0.002908076,0.23868772
41.0909,-85.0666,18003,IN,Allen,10.3,30.1,30.36175736,25.02803207,2.970376172,1.528390916,0.827457534,0.087155258,0.02027323,1.428463095
39.206,-85.8976,18005,IN,Bartholomew,10.5,29.5,27.30378353,24.31494743,0.530008956,2.234032612,0.753445684,0.064087792,0.030426437,1.610867197
40.6063,-87.3109,18007,IN,Benton,12.1,32.6,1.586147089,1.45012357,0.067765982,0.137692689,0,0,0.000491555,0.067765981
40.4736,-85.3248,18009,IN,Blackford,13.7,36,2.122043971,2.061037139,0,0.021392109,0,0.00615804,0,0.05484879
40.0508,-86.4687,18011,IN,Boone,10.4,27.8,11.91768501,11.39127447,0.069323223,0.296741993,0.191436732,0.009318601,0,0.256331939
39.1962,-86.2274,18013,IN,Brown,12.6,30.6,3.077083204,3.006788193,0.003961302,0.082777439,0.018488174,0.000948149,0,0.046897362
40.5828,-86.5635,18015,IN,Carroll,13.4,26.9,4.532992154,4.214848691,0.001749296,0.365042304,0.000553292,0.01360131,0,0.302239579
40.7615,-86.346,18017,IN,Cass,9.8,33.7,4.017449251,3.696660442,0.030126649,0.318543639,0.062845387,0.014179815,0.000742559,0.212894391
38.4772,-85.7073,18019,IN,Clark,12.4,33.3,21.93505957,19.16212994,1.463431202,1.043287977,0.199745489,0.062597242,0.004746405,1.042409296
39.3928,-87.1158,18021,IN,Clay,11.9,33.1,3.97718323,3.873060948,0.024099342,0.032545255,0.010972787,0.022591643,8.14E-06,0.046450375
40.3017,-86.4751,18023,IN,Clinton,12.5,30.9,1.867995271,1.676155439,0.00362827,0.226047714,0.023000553,0.001751527,0,0.163459478
38.2924,-86.4517,18025,IN,Crawford,13,33,14.56921955,14.22209582,0.081814377,0.112304935,0.014166224,0.049087855,0.046672268,0.155382988
38.7024,-87.072,18027,IN,Daviess,12.9,37.6,9.602525523,7.848578117,0.158663902,1.588012006,0.193302665,0.032372085,0.012639029,1.356969738
39.1452,-84.9732,18029,IN,Dearborn,13.1,32.5,26.38594109,25.34955957,0.332972277,0.332534647,0.157078517,0.050628434,0.006851731,0.488850635
39.307,-85.5011,18031,IN,Decatur,14.7,32.7,15.27376404,14.95401824,0.0302886,0.127615606,0.076441116,0.026647319,2.11E-05,0.186347609
41.3976,-84.9991,18033,IN,DeKalb,10,32.8,21.45278568,20.70448098,0.093388103,0.602802442,0.107491122,0.052182717,0.002955113,0.492287644
40.2275,-85.3969,18035,IN,Delaware,12.5,31.5,25.52748542,22.49212783,2.131567082,0.400611448,0.264159225,0.055391202,0.013784073,0.570456052
38.3643,-86.8798,18037,IN,Dubois,10.3,29.5,5.756478552,5.673258839,0.01232072,0.086348572,0.009318569,0.008972563,0,0.052607853
41.5974,-85.8587,18039,IN,Elkhart,10.2,32.8,20.40636331,17.64157415,0.580987781,2.6965144,0.234635144,0.068779932,0.006915824,1.873470475
39.64,-85.1788,18041,IN,Fayette,12.2,33,21.42867736,20.532229,0.489757768,0.133852706,0.050129444,0.030253716,0,0.326307509
38.3189,-85.9068,18043,IN,Floyd,10.2,30.1,29.45992608,27.31603899,0.940370393,0.710819923,0.311008541,0.076803684,0.005874083,0.809830374
40.1209,-87.242,18045,IN,Fountain,13.9,29.8,18.70315825,18.27704727,0.016248194,0.400720717,0.057053063,0.077297359,0,0.275512324
39.4149,-85.0602,18047,IN,Franklin,11,26.2,9.07307697,8.87085566,0.005750978,0.146132752,0.009294802,0.03398834,0,0.153187198
41.047,-86.2635,18049,IN,Fulton,11.4,37.8,12.9052196,12.5396258,0.075109948,0.367423237,0.031445852,0.021594024,0.009725396,0.227718555
38.3119,-87.5846,18051,IN,Gibson,13.4,32.1,3.860621686,3.683086125,0.04629363,0.080381795,0.039182014,0.005510098,0,0.086549807
40.5158,-85.6547,18053,IN,Grant,14.8,37.3,17.95437762,16.30661575,0.815262348,0.527062194,0.116230756,0.068461444,0.009764405,0.638042961
39.0364,-86.962,18055,IN,Greene,13.3,33.1,11.94169699,11.71664795,0.019274903,0.108181717,0.026094482,0.047001581,0,0.132678068
40.0725,-86.052,18057,IN,Hamilton,8.6,25.9,31.86530235,28.72871645,0.860997347,0.949273314,1.359353127,0.069312557,0.011837322,0.835085542
39.8236,-85.7733,18059,IN,Hancock,12.4,34.8,29.28121136,28.21568704,0.280909064,0.496064366,0.240067027,0.082054653,0.002588003,0.459905575
38.1952,-86.1113,18061,IN,Harrison,12.8,36,4.737208003,4.575438151,0.025033092,0.113336655,0.006625558,0.013273599,0.005080785,0.111756842
39.7695,-86.51,18063,IN,Hendricks,10,31.8,27.18561397,25.50700033,0.594654638,0.630831451,0.461731218,0.047039618,0.006055129,0.569133092
39.9311,-85.3964,18065,IN,Henry,13.4,36.7,3.692386759,3.612315492,0.025955417,0.044206451,0.014374932,5.25E-05,0,0.039688421
40.4836,-86.117,18067,IN,Howard,13.1,31.4,26.84962908,24.15039682,1.421127413,0.656185391,0.366674404,0.101571454,0.003519965,0.806339001
40.8292,-85.4881,18069,IN,Huntington,12.7,32.6,22.21052548,21.56945931,0.083523451,0.42550404,0.107803184,0.05528309,0.007525387,0.386931071
38.9064,-86.0375,18071,IN,Jackson,12.4,36.9,15.62594669,14.72696451,0.084342177,0.89912866,0.255338233,0.036512248,0.004222848,0.518566662
41.023,-87.1161,18073,IN,Jasper,11.3,29.6,9.130084719,8.571145692,0.014939178,0.821655532,0.043289184,0.01303684,0.000855791,0.486818081
40.438,-85.0057,18075,IN,Jay,15,34,19.39688454,18.82029823,0.062876755,0.485974822,0.058302654,0.021279052,0,0.434127837
38.7858,-85.4385,18077,IN,Jefferson,12.5,35,16.59037632,15.73678851,0.220632767,0.656654836,0.12119676,0.017720973,0,0.494037247
38.9969,-85.628,18079,IN,Jennings,12.3,33,28.04520283,26.7733524,0.249594949,0.807672788,0.094224822,0.048553674,0,0.879476996
39.49,-86.1016,18081,IN,Johnson,10.7,30.2,28.66137126,27.38816023,0.185330362,0.625162219,0.423124935,0.060670889,0.011558533,0.592526309
38.6891,-87.418,18083,IN,Knox,11,32.3,27.41040285,26.77003868,0.135412824,0.368643946,0.148889643,0.02497347,0.005202914,0.325885314
41.2441,-85.8607,18085,IN,Kosciusko,10.4,33.2,18.2801144,16.54955092,0.193749189,2.052641288,0.166892961,0.041325658,0.002181869,1.326413819
41.6426,-85.4265,18087,IN,LaGrange,11.2,34.2,0.159010919,0.152091113,0,0.011658921,0,0,0,0.006919807
41.4171,-87.3822,18089,IN,Lake,12.2,33.9,29.77974254,19.21644128,8.377036359,3.252609615,0.362995245,0.082725672,0.00754516,1.732998838
41.546,-86.74,18091,IN,LaPorte,10.8,35,25.45768862,17.95725951,5.982151665,1.496278358,0.136565719,0.082482359,0.005023639,1.294205747
38.8412,-86.4835,18093,IN,Lawrence,15.1,38.2,9.473856576,9.283786669,0.032192418,0.113982682,0.032504048,0.010413515,0,0.114959915
40.1616,-85.7194,18095,IN,Madison,12.2,33.4,26.10795281,22.30626832,2.763105546,0.853879569,0.100199318,0.060202564,0.009352785,0.868824289
39.7817,-86.1385,18097,IN,Marion,10.5,32.4,24.24301532,15.11207045,6.804043504,1.994950228,0.442967292,0.070722572,0.01361641,1.799595082
41.3248,-86.2618,18099,IN,Marshall,11.1,30.8,15.17402833,14.28995049,0.072993016,1.074286585,0.112007392,0.061942462,0.001247586,0.635887367
38.708,-86.8031,18101,IN,Martin,15.6,35.8,2.668389003,2.595324434,0,0.000867513,0,0.027519609,0,0.045544947
